% program   : RTKPOST ver.2.4.3 p01
% inp file  : C:\Users\denshi\Desktop\iXR_TCGuideLine\Data\20201105\rover.obs
% inp file  : C:\Users\denshi\Desktop\iXR_TCGuideLine\Data\20201105\base.obs
% inp file  : C:\Users\denshi\Desktop\iXR_TCGuideLine\Data\20201105\base.nav
% obs start : 2020/11/05 05:15:09.6 GPST (week2130 364509.6s)
% obs end   : 2020/11/05 05:46:36.4 GPST (week2130 366396.4s)
% pos mode  : kinematic
% freqs     : L1+L2
% solution  : forward
% elev mask : 15.0 deg
% dynamics  : off
% tidecorr  : off
% ionos opt : broadcast
% tropo opt : saastamoinen
% ephemeris : broadcast
% navi sys  : gps galileo qzss beidou
% amb res   : instantaneous
% val thres : 3.0
% antenna1  :                       ( 0.0000  0.0000  0.0000)
% antenna2  :                       ( 0.0000  0.0000  0.0000)
% ref pos   : -3961905.0100   3348993.7800   3698211.8200
%
% (x/y/z-ecef=WGS84,Q=1:fix,2:float,3:sbas,4:dgps,5:single,6:ppp,ns=# of satellites)
%  GPST              x-ecef(m)      y-ecef(m)      z-ecef(m)   Q  ns   sdx(m)   sdy(m)   sdz(m)  sdxy(m)  sdyz(m)  sdzx(m) age(s)  ratio
2130 364509.600  -3961765.2116   3349009.3008   3698311.6628   1  26   0.0057   0.0062   0.0047  -0.0050   0.0042  -0.0039   0.58    8.7
2130 364509.800  -3961765.2109   3349009.3009   3698311.6630   1  26   0.0057   0.0062   0.0047  -0.0051   0.0042  -0.0039   0.79    8.4
2130 364510.000  -3961765.2078   3349009.2969   3698311.6624   1  26   0.0057   0.0062   0.0049  -0.0051   0.0043  -0.0040  -0.01    9.1
2130 364510.200  -3961765.2089   3349009.2981   3698311.6622   1  26   0.0057   0.0063   0.0049  -0.0051   0.0043  -0.0040   0.19   10.1
2130 364510.400  -3961765.2084   3349009.2981   3698311.6612   1  26   0.0057   0.0063   0.0049  -0.0051   0.0043  -0.0040   0.38    8.6
2130 364510.600  -3961765.2087   3349009.2983   3698311.6610   1  26   0.0057   0.0063   0.0049  -0.0051   0.0044  -0.0040   0.58    9.6
2130 364510.800  -3961765.2097   3349009.2989   3698311.6622   1  26   0.0058   0.0063   0.0050  -0.0051   0.0044  -0.0040   0.79   10.7
2130 364511.000  -3961765.2101   3349009.2996   3698311.6630   1  26   0.0057   0.0061   0.0047  -0.0050   0.0041  -0.0039  -0.01    9.8
2130 364511.200  -3961765.2092   3349009.2967   3698311.6611   1  26   0.0057   0.0061   0.0047  -0.0050   0.0041  -0.0039   0.19   11.3
2130 364511.400  -3961765.2104   3349009.2978   3698311.6627   1  26   0.0057   0.0062   0.0047  -0.0050   0.0041  -0.0039   0.38   10.0
2130 364511.600  -3961765.2096   3349009.2976   3698311.6621   1  26   0.0057   0.0062   0.0047  -0.0050   0.0042  -0.0039   0.58    9.6
2130 364511.800  -3961765.2115   3349009.2991   3698311.6638   1  26   0.0057   0.0062   0.0047  -0.0051   0.0042  -0.0039   0.79    8.8
2130 364512.000  -3961765.2098   3349009.2975   3698311.6608   1  26   0.0057   0.0061   0.0047  -0.0050   0.0041  -0.0039  -0.01    9.7
2130 364512.200  -3961765.2082   3349009.2962   3698311.6615   1  26   0.0057   0.0061   0.0047  -0.0050   0.0041  -0.0039   0.19   10.5
2130 364512.400  -3961765.2089   3349009.2950   3698311.6615   1  26   0.0057   0.0062   0.0047  -0.0050   0.0041  -0.0039   0.38    8.8
2130 364512.600  -3961765.2084   3349009.2952   3698311.6609   1  26   0.0057   0.0062   0.0047  -0.0050   0.0042  -0.0039   0.58   10.5
2130 364512.800  -3961765.2070   3349009.2934   3698311.6612   1  26   0.0057   0.0062   0.0047  -0.0051   0.0042  -0.0039   0.79    9.6
2130 364513.000  -3961765.2109   3349009.2996   3698311.6629   1  26   0.0057   0.0061   0.0047  -0.0050   0.0041  -0.0039  -0.01    9.9
2130 364513.200  -3961765.2080   3349009.2969   3698311.6608   1  26   0.0057   0.0061   0.0047  -0.0050   0.0041  -0.0039   0.19    9.8
2130 364513.400  -3961765.2087   3349009.2961   3698311.6611   1  26   0.0057   0.0063   0.0049  -0.0051   0.0043  -0.0040   0.38   10.8
2130 364513.600  -3961765.2072   3349009.2950   3698311.6614   1  26   0.0057   0.0063   0.0049  -0.0051   0.0044  -0.0040   0.58    8.3
2130 364513.800  -3961765.2076   3349009.2948   3698311.6601   1  26   0.0058   0.0063   0.0050  -0.0051   0.0044  -0.0040   0.79   11.1
2130 364514.000  -3961765.2083   3349009.2976   3698311.6629   1  26   0.0057   0.0062   0.0049  -0.0051   0.0043  -0.0040  -0.01   11.0
2130 364514.200  -3961765.2093   3349009.2980   3698311.6637   1  26   0.0057   0.0063   0.0049  -0.0051   0.0043  -0.0040   0.19    9.0
2130 364514.400  -3961765.2100   3349009.2975   3698311.6626   1  26   0.0057   0.0063   0.0049  -0.0051   0.0043  -0.0040   0.38   10.2
2130 364514.600  -3961765.2115   3349009.2988   3698311.6630   1  26   0.0057   0.0063   0.0049  -0.0051   0.0044  -0.0040   0.58    9.6
2130 364514.800  -3961765.2112   3349009.2977   3698311.6631   1  26   0.0058   0.0063   0.0050  -0.0051   0.0044  -0.0040   0.79   10.2
2130 364515.000  -3961765.2085   3349009.2970   3698311.6625   1  26   0.0057   0.0062   0.0049  -0.0051   0.0043  -0.0040  -0.01    9.0
2130 364515.200  -3961765.2094   3349009.2980   3698311.6633   1  26   0.0057   0.0063   0.0049  -0.0051   0.0043  -0.0040   0.19   10.2
2130 364515.400  -3961765.2086   3349009.2962   3698311.6625   1  26   0.0057   0.0063   0.0049  -0.0051   0.0043  -0.0040   0.38   11.4
2130 364515.600  -3961765.2102   3349009.2962   3698311.6623   1  26   0.0057   0.0063   0.0049  -0.0051   0.0044  -0.0040   0.58   10.8
2130 364515.800  -3961765.2082   3349009.2964   3698311.6612   1  26   0.0058   0.0063   0.0050  -0.0051   0.0044  -0.0040   0.79    9.1
2130 364516.000  -3961765.2069   3349009.2948   3698311.6616   1  26   0.0057   0.0062   0.0049  -0.0051   0.0043  -0.0040  -0.01    8.2
2130 364516.200  -3961765.2067   3349009.2953   3698311.6612   1  26   0.0057   0.0063   0.0049  -0.0051   0.0043  -0.0040   0.19    9.6
2130 364516.400  -3961765.2051   3349009.2937   3698311.6601   1  26   0.0057   0.0063   0.0049  -0.0051   0.0043  -0.0040   0.38   10.0
2130 364516.600  -3961765.2077   3349009.2945   3698311.6629   1  26   0.0057   0.0063   0.0049  -0.0051   0.0044  -0.0040   0.58    8.7
2130 364516.800  -3961765.2067   3349009.2941   3698311.6622   1  26   0.0058   0.0063   0.0050  -0.0051   0.0044  -0.0040   0.79    9.5
2130 364517.000  -3961765.2088   3349009.2966   3698311.6621   1  26   0.0057   0.0062   0.0049  -0.0051   0.0043  -0.0040  -0.01   11.5
2130 364517.200  -3961765.2072   3349009.2964   3698311.6613   1  26   0.0057   0.0063   0.0049  -0.0051   0.0043  -0.0040   0.19    9.6
2130 364517.400  -3961765.2069   3349009.2946   3698311.6622   1  26   0.0057   0.0063   0.0049  -0.0051   0.0043  -0.0040   0.38    8.6
2130 364517.600  -3961765.2080   3349009.2953   3698311.6618   1  26   0.0057   0.0063   0.0049  -0.0051   0.0044  -0.0040   0.58    9.7
2130 364517.800  -3961765.2078   3349009.2947   3698311.6616   1  26   0.0058   0.0063   0.0050  -0.0051   0.0044  -0.0040   0.79   10.9
2130 364518.000  -3961765.2090   3349009.2963   3698311.6618   1  26   0.0057   0.0062   0.0049  -0.0051   0.0043  -0.0040  -0.01   12.2
2130 364518.200  -3961765.2094   3349009.2963   3698311.6617   1  26   0.0057   0.0063   0.0049  -0.0051   0.0043  -0.0040   0.19   11.7
2130 364518.400  -3961765.2100   3349009.2959   3698311.6628   1  26   0.0057   0.0063   0.0049  -0.0051   0.0043  -0.0040   0.38   12.8
2130 364518.600  -3961765.2089   3349009.2953   3698311.6620   1  26   0.0057   0.0063   0.0049  -0.0051   0.0044  -0.0040   0.58   11.8
2130 364518.800  -3961765.2089   3349009.2952   3698311.6605   1  26   0.0058   0.0063   0.0050  -0.0051   0.0044  -0.0040   0.79   13.3
2130 364519.000  -3961765.2075   3349009.2953   3698311.6604   1  26   0.0057   0.0062   0.0049  -0.0051   0.0043  -0.0040  -0.01    9.0
2130 364519.200  -3961765.2075   3349009.2953   3698311.6604   1  26   0.0057   0.0063   0.0049  -0.0051   0.0043  -0.0040   0.19   11.5
2130 364519.400  -3961765.2094   3349009.2962   3698311.6617   1  26   0.0057   0.0063   0.0049  -0.0051   0.0043  -0.0040   0.38   10.3
2130 364519.600  -3961765.2080   3349009.2959   3698311.6610   1  26   0.0057   0.0063   0.0049  -0.0051   0.0044  -0.0040   0.58   11.1
2130 364519.800  -3961765.2095   3349009.2961   3698311.6623   1  26   0.0058   0.0063   0.0050  -0.0051   0.0044  -0.0040   0.79    9.9
2130 364520.000  -3961765.2091   3349009.2968   3698311.6617   1  26   0.0057   0.0062   0.0049  -0.0051   0.0043  -0.0040  -0.01    9.3
2130 364520.200  -3961765.2108   3349009.2980   3698311.6622   1  26   0.0057   0.0063   0.0049  -0.0051   0.0043  -0.0040   0.19   10.7
2130 364520.400  -3961765.2107   3349009.2971   3698311.6614   1  26   0.0057   0.0063   0.0049  -0.0051   0.0043  -0.0040   0.38    9.7
2130 364520.600  -3961765.2106   3349009.2978   3698311.6618   1  26   0.0057   0.0063   0.0049  -0.0051   0.0044  -0.0040   0.58    9.2
2130 364520.800  -3961765.2104   3349009.2970   3698311.6615   1  26   0.0058   0.0063   0.0050  -0.0051   0.0044  -0.0040   0.79    9.0
2130 364521.000  -3961765.2097   3349009.2971   3698311.6615   1  26   0.0057   0.0062   0.0049  -0.0051   0.0043  -0.0040  -0.01    9.8
2130 364521.200  -3961765.2102   3349009.2976   3698311.6630   1  26   0.0057   0.0063   0.0049  -0.0051   0.0043  -0.0040   0.19    9.3
2130 364521.400  -3961765.2099   3349009.2962   3698311.6617   1  26   0.0057   0.0063   0.0049  -0.0051   0.0043  -0.0040   0.38    8.2
2130 364521.600  -3961765.2094   3349009.2959   3698311.6618   1  26   0.0057   0.0062   0.0047  -0.0050   0.0041  -0.0039   0.58    8.7
2130 364521.800  -3961765.2103   3349009.2969   3698311.6625   1  26   0.0058   0.0063   0.0050  -0.0051   0.0044  -0.0040   0.79    9.5
2130 364522.000  -3961765.2100   3349009.2958   3698311.6616   1  26   0.0057   0.0061   0.0047  -0.0050   0.0041  -0.0039  -0.01    9.5
2130 364522.200  -3961765.2089   3349009.2946   3698311.6621   1  26   0.0057   0.0061   0.0047  -0.0050   0.0041  -0.0039   0.19    9.5
2130 364522.400  -3961765.2085   3349009.2927   3698311.6606   1  26   0.0057   0.0063   0.0049  -0.0051   0.0043  -0.0040   0.38    9.4
2130 364522.600  -3961765.2085   3349009.2940   3698311.6600   1  26   0.0057   0.0062   0.0047  -0.0050   0.0041  -0.0039   0.58   11.1
2130 364522.800  -3961765.2067   3349009.2922   3698311.6595   1  26   0.0057   0.0062   0.0047  -0.0051   0.0042  -0.0039   0.79   12.8
2130 364523.000  -3961765.2089   3349009.2960   3698311.6624   1  26   0.0057   0.0061   0.0047  -0.0050   0.0041  -0.0039  -0.01   10.4
2130 364523.200  -3961765.2089   3349009.2950   3698311.6618   1  26   0.0057   0.0063   0.0049  -0.0051   0.0043  -0.0040   0.19   10.4
2130 364523.400  -3961765.2079   3349009.2943   3698311.6625   1  26   0.0057   0.0062   0.0047  -0.0050   0.0041  -0.0039   0.38   11.5
2130 364523.600  -3961765.2090   3349009.2942   3698311.6615   1  26   0.0057   0.0063   0.0049  -0.0051   0.0044  -0.0040   0.58   10.4
2130 364523.800  -3961765.2098   3349009.2960   3698311.6631   1  26   0.0058   0.0063   0.0050  -0.0051   0.0044  -0.0040   0.79   10.5
2130 364524.000  -3961765.2097   3349009.2950   3698311.6622   1  26   0.0057   0.0062   0.0049  -0.0051   0.0043  -0.0040  -0.01   11.2
2130 364524.200  -3961765.2103   3349009.2965   3698311.6612   1  26   0.0057   0.0063   0.0049  -0.0051   0.0043  -0.0040   0.19   11.9
2130 364524.400  -3961765.2093   3349009.2955   3698311.6616   1  26   0.0057   0.0063   0.0049  -0.0051   0.0043  -0.0040   0.38   11.3
2130 364524.600  -3961765.2094   3349009.2964   3698311.6624   1  26   0.0057   0.0063   0.0049  -0.0051   0.0044  -0.0040   0.58   11.3
2130 364524.800  -3961765.2109   3349009.2954   3698311.6630   1  26   0.0058   0.0063   0.0050  -0.0051   0.0044  -0.0040   0.79   11.2
2130 364525.000  -3961765.2080   3349009.2955   3698311.6611   1  26   0.0057   0.0061   0.0047  -0.0050   0.0041  -0.0039  -0.01    9.5
2130 364525.200  -3961765.2084   3349009.2956   3698311.6614   1  26   0.0057   0.0061   0.0047  -0.0050   0.0041  -0.0039   0.19   11.2
2130 364525.400  -3961765.2075   3349009.2947   3698311.6603   1  26   0.0057   0.0062   0.0047  -0.0050   0.0041  -0.0039   0.38    9.9
2130 364525.600  -3961765.2073   3349009.2930   3698311.6592   1  26   0.0057   0.0062   0.0047  -0.0050   0.0041  -0.0039   0.58    9.1
2130 364525.800  -3961765.2069   3349009.2931   3698311.6601   1  26   0.0057   0.0062   0.0047  -0.0051   0.0042  -0.0039   0.79   10.7
2130 364526.000  -3961765.2097   3349009.2969   3698311.6633   1  26   0.0057   0.0061   0.0047  -0.0050   0.0041  -0.0039  -0.01   10.5
2130 364526.200  -3961765.2091   3349009.2965   3698311.6633   1  26   0.0057   0.0061   0.0047  -0.0050   0.0041  -0.0039   0.19   10.7
2130 364526.400  -3961765.2069   3349009.2950   3698311.6612   1  26   0.0057   0.0062   0.0047  -0.0050   0.0041  -0.0039   0.38   13.9
2130 364526.600  -3961765.2080   3349009.2947   3698311.6619   1  26   0.0057   0.0062   0.0047  -0.0050   0.0041  -0.0039   0.58   11.3
2130 364526.800  -3961765.2083   3349009.2951   3698311.6618   1  26   0.0057   0.0062   0.0047  -0.0051   0.0042  -0.0039   0.79    9.9
2130 364527.000  -3961765.2096   3349009.2969   3698311.6623   1  26   0.0057   0.0061   0.0047  -0.0050   0.0041  -0.0039  -0.01   12.4
2130 364527.200  -3961765.2099   3349009.2975   3698311.6640   1  26   0.0057   0.0061   0.0047  -0.0050   0.0041  -0.0039   0.19   10.3
2130 364527.400  -3961765.2097   3349009.2967   3698311.6636   1  26   0.0057   0.0062   0.0047  -0.0050   0.0041  -0.0039   0.38   11.1
2130 364527.600  -3961765.2096   3349009.2961   3698311.6641   1  26   0.0057   0.0062   0.0047  -0.0050   0.0041  -0.0039   0.58   11.1
2130 364527.800  -3961765.2099   3349009.2969   3698311.6637   1  26   0.0057   0.0062   0.0047  -0.0051   0.0042  -0.0039   0.79   11.5
2130 364528.000  -3961765.2098   3349009.2956   3698311.6628   1  26   0.0057   0.0061   0.0047  -0.0050   0.0041  -0.0039  -0.01   12.5
2130 364528.200  -3961765.2094   3349009.2953   3698311.6619   1  26   0.0057   0.0061   0.0047  -0.0050   0.0041  -0.0039   0.19   13.2
2130 364528.400  -3961765.2104   3349009.2953   3698311.6625   1  26   0.0057   0.0062   0.0047  -0.0050   0.0041  -0.0039   0.38   11.9
2130 364528.600  -3961765.2106   3349009.2957   3698311.6629   1  26   0.0057   0.0062   0.0047  -0.0050   0.0041  -0.0039   0.58   13.5
2130 364528.800  -3961765.2096   3349009.2956   3698311.6622   1  26   0.0057   0.0062   0.0047  -0.0051   0.0042  -0.0039   0.79   14.1
2130 364529.000  -3961765.2096   3349009.2967   3698311.6635   1  26   0.0057   0.0062   0.0049  -0.0051   0.0043  -0.0040  -0.01   11.7
2130 364529.200  -3961765.2094   3349009.2970   3698311.6629   1  26   0.0057   0.0063   0.0049  -0.0051   0.0043  -0.0040   0.19   12.7
2130 364529.400  -3961765.2102   3349009.2977   3698311.6638   1  26   0.0057   0.0063   0.0049  -0.0051   0.0043  -0.0040   0.38   11.4
2130 364529.600  -3961765.2101   3349009.2975   3698311.6639   1  26   0.0057   0.0063   0.0049  -0.0051   0.0043  -0.0040   0.58   12.2
2130 364529.800  -3961765.2106   3349009.2982   3698311.6637   1  26   0.0058   0.0063   0.0050  -0.0051   0.0044  -0.0040   0.79   12.1
2130 364530.000  -3961765.2110   3349009.2969   3698311.6637   1  26   0.0057   0.0062   0.0049  -0.0051   0.0043  -0.0040  -0.01   11.9
2130 364530.200  -3961765.2109   3349009.2972   3698311.6644   1  26   0.0057   0.0063   0.0049  -0.0051   0.0043  -0.0040   0.19   11.2
2130 364530.400  -3961765.2114   3349009.2971   3698311.6642   1  26   0.0057   0.0063   0.0049  -0.0051   0.0043  -0.0040   0.38   12.5
2130 364530.600  -3961765.2132   3349009.2986   3698311.6651   1  26   0.0057   0.0063   0.0049  -0.0051   0.0043  -0.0040   0.58   10.2
2130 364530.800  -3961765.2119   3349009.2987   3698311.6651   1  26   0.0058   0.0063   0.0050  -0.0051   0.0044  -0.0040   0.79   10.2
2130 364531.000  -3961765.2106   3349009.2968   3698311.6629   1  26   0.0057   0.0061   0.0047  -0.0050   0.0041  -0.0039  -0.01   10.6
2130 364531.200  -3961765.2115   3349009.2965   3698311.6625   1  26   0.0057   0.0061   0.0047  -0.0050   0.0041  -0.0039   0.19   12.3
2130 364531.400  -3961765.2114   3349009.2969   3698311.6632   1  26   0.0057   0.0062   0.0047  -0.0050   0.0041  -0.0039   0.38   13.0
2130 364531.600  -3961765.2129   3349009.2974   3698311.6645   1  26   0.0057   0.0062   0.0047  -0.0050   0.0041  -0.0039   0.58   12.9
2130 364531.800  -3961765.2124   3349009.2965   3698311.6648   1  26   0.0057   0.0062   0.0047  -0.0051   0.0042  -0.0039   0.79    9.5
2130 364532.000  -3961765.2102   3349009.2968   3698311.6627   1  26   0.0057   0.0061   0.0047  -0.0050   0.0041  -0.0039  -0.01   12.7
2130 364532.200  -3961765.2093   3349009.2960   3698311.6628   1  26   0.0057   0.0061   0.0047  -0.0050   0.0041  -0.0039   0.19   14.5
2130 364532.400  -3961765.2086   3349009.2955   3698311.6631   1  26   0.0057   0.0062   0.0047  -0.0050   0.0041  -0.0039   0.38   11.9
2130 364532.600  -3961765.2111   3349009.2974   3698311.6636   1  26   0.0057   0.0062   0.0047  -0.0050   0.0041  -0.0039   0.58   11.9
2130 364532.800  -3961765.2100   3349009.2961   3698311.6631   1  26   0.0057   0.0062   0.0047  -0.0051   0.0042  -0.0039   0.79   12.8
2130 364533.000  -3961765.2109   3349009.2964   3698311.6635   1  26   0.0057   0.0061   0.0047  -0.0050   0.0041  -0.0039  -0.01   10.9
2130 364533.200  -3961765.2108   3349009.2988   3698311.6630   1  26   0.0057   0.0061   0.0047  -0.0050   0.0041  -0.0039   0.19   12.7
2130 364533.400  -3961765.2111   3349009.2960   3698311.6629   1  26   0.0057   0.0062   0.0047  -0.0050   0.0041  -0.0039   0.38   11.4
2130 364533.600  -3961765.2108   3349009.2973   3698311.6628   1  26   0.0057   0.0062   0.0047  -0.0050   0.0041  -0.0039   0.58   14.0
2130 364533.800  -3961765.2117   3349009.2980   3698311.6642   1  26   0.0057   0.0062   0.0047  -0.0051   0.0042  -0.0039   0.79   14.6
2130 364534.000  -3961765.2097   3349009.2961   3698311.6623   1  26   0.0057   0.0061   0.0047  -0.0050   0.0041  -0.0039  -0.01   12.3
2130 364534.200  -3961765.2077   3349009.2946   3698311.6617   1  26   0.0057   0.0061   0.0047  -0.0050   0.0041  -0.0039   0.19   11.5
2130 364534.400  -3961765.2106   3349009.2973   3698311.6630   1  26   0.0057   0.0062   0.0047  -0.0050   0.0041  -0.0039   0.38   11.5
2130 364534.600  -3961765.2109   3349009.2970   3698311.6627   1  26   0.0057   0.0062   0.0047  -0.0050   0.0041  -0.0039   0.58   11.7
2130 364534.800  -3961765.2099   3349009.2960   3698311.6619   1  26   0.0057   0.0062   0.0047  -0.0051   0.0042  -0.0039   0.79   13.6
2130 364535.000  -3961765.2113   3349009.2980   3698311.6620   1  26   0.0057   0.0061   0.0047  -0.0050   0.0041  -0.0039  -0.01   12.4
2130 364535.200  -3961765.2109   3349009.2959   3698311.6622   1  26   0.0057   0.0061   0.0047  -0.0050   0.0041  -0.0039   0.19   13.5
2130 364535.400  -3961765.2113   3349009.2969   3698311.6628   1  26   0.0057   0.0062   0.0047  -0.0050   0.0041  -0.0039   0.38   13.9
2130 364535.600  -3961765.2112   3349009.2962   3698311.6635   1  26   0.0057   0.0062   0.0047  -0.0050   0.0041  -0.0039   0.58   12.0
2130 364535.800  -3961765.2094   3349009.2965   3698311.6618   1  26   0.0057   0.0062   0.0047  -0.0051   0.0042  -0.0039   0.79   12.7
2130 364536.000  -3961765.2098   3349009.2965   3698311.6622   1  26   0.0057   0.0061   0.0047  -0.0050   0.0041  -0.0039  -0.01   12.0
2130 364536.200  -3961765.2088   3349009.2961   3698311.6634   1  26   0.0057   0.0061   0.0047  -0.0050   0.0041  -0.0039   0.19   11.7
2130 364536.400  -3961765.2070   3349009.2944   3698311.6630   1  26   0.0057   0.0062   0.0047  -0.0050   0.0041  -0.0039   0.38   13.8
2130 364536.600  -3961765.2059   3349009.2937   3698311.6614   1  26   0.0057   0.0062   0.0047  -0.0050   0.0041  -0.0039   0.58   13.5
2130 364536.800  -3961765.2048   3349009.2915   3698311.6608   1  26   0.0057   0.0062   0.0047  -0.0051   0.0042  -0.0039   0.79   11.7
2130 364537.000  -3961765.2111   3349009.2978   3698311.6647   1  26   0.0057   0.0061   0.0047  -0.0050   0.0041  -0.0039  -0.01   14.7
2130 364537.200  -3961765.2096   3349009.2963   3698311.6629   1  26   0.0057   0.0061   0.0047  -0.0050   0.0041  -0.0039   0.19   14.7
2130 364537.400  -3961765.2105   3349009.2969   3698311.6644   1  26   0.0057   0.0062   0.0047  -0.0050   0.0041  -0.0039   0.38   15.1
2130 364537.600  -3961765.2100   3349009.2950   3698311.6618   1  26   0.0057   0.0062   0.0047  -0.0050   0.0041  -0.0039   0.58   12.3
2130 364537.800  -3961765.2083   3349009.2959   3698311.6636   1  26   0.0057   0.0062   0.0047  -0.0051   0.0042  -0.0039   0.79   13.2
2130 364538.000  -3961765.2107   3349009.2972   3698311.6622   1  26   0.0057   0.0061   0.0047  -0.0050   0.0041  -0.0039  -0.01   11.3
2130 364538.200  -3961765.2100   3349009.2955   3698311.6637   1  26   0.0057   0.0061   0.0047  -0.0050   0.0041  -0.0039   0.19   12.1
2130 364538.400  -3961765.2113   3349009.2966   3698311.6637   1  26   0.0057   0.0062   0.0047  -0.0050   0.0041  -0.0039   0.38   12.8
2130 364538.600  -3961765.2112   3349009.2968   3698311.6641   1  26   0.0057   0.0062   0.0047  -0.0050   0.0041  -0.0039   0.58   13.4
2130 364538.800  -3961765.2108   3349009.2955   3698311.6637   1  26   0.0057   0.0062   0.0047  -0.0051   0.0042  -0.0039   0.79   11.9
2130 364539.000  -3961765.2113   3349009.2977   3698311.6632   1  26   0.0057   0.0061   0.0047  -0.0050   0.0041  -0.0039  -0.01   15.5
2130 364539.200  -3961765.2113   3349009.2977   3698311.6639   1  26   0.0057   0.0061   0.0047  -0.0050   0.0041  -0.0039   0.19   17.4
2130 364539.400  -3961765.2117   3349009.2993   3698311.6633   1  26   0.0057   0.0062   0.0047  -0.0050   0.0041  -0.0039   0.38   15.7
2130 364539.600  -3961765.2114   3349009.2983   3698311.6640   1  26   0.0057   0.0062   0.0047  -0.0050   0.0041  -0.0039   0.58   15.8
2130 364539.800  -3961765.2118   3349009.2987   3698311.6640   1  26   0.0057   0.0062   0.0047  -0.0051   0.0042  -0.0039   0.79   15.8
2130 364540.000  -3961765.2112   3349009.2966   3698311.6641   1  26   0.0057   0.0061   0.0047  -0.0050   0.0041  -0.0039  -0.01   11.7
2130 364540.200  -3961765.2106   3349009.2958   3698311.6642   1  26   0.0057   0.0061   0.0047  -0.0050   0.0041  -0.0039   0.19   11.1
2130 364540.400  -3961765.2099   3349009.2953   3698311.6634   1  26   0.0057   0.0062   0.0047  -0.0050   0.0041  -0.0039   0.38   13.6
2130 364540.600  -3961765.2090   3349009.2948   3698311.6636   1  26   0.0057   0.0062   0.0047  -0.0050   0.0041  -0.0039   0.58   11.0
2130 364540.800  -3961765.2088   3349009.2939   3698311.6623   1  26   0.0057   0.0062   0.0047  -0.0051   0.0042  -0.0039   0.79   14.8
2130 364541.000  -3961765.2103   3349009.2969   3698311.6636   1  26   0.0057   0.0061   0.0047  -0.0050   0.0041  -0.0039  -0.01   11.6
2130 364541.200  -3961765.2120   3349009.2968   3698311.6651   1  26   0.0057   0.0061   0.0047  -0.0050   0.0041  -0.0039   0.19    9.5
2130 364541.400  -3961765.2116   3349009.2971   3698311.6638   1  26   0.0057   0.0062   0.0047  -0.0050   0.0041  -0.0039   0.38   11.5
2130 364541.600  -3961765.2109   3349009.2961   3698311.6640   1  26   0.0057   0.0062   0.0047  -0.0050   0.0041  -0.0039   0.58   12.1
2130 364541.800  -3961765.2131   3349009.2981   3698311.6659   1  26   0.0057   0.0062   0.0047  -0.0051   0.0042  -0.0039   0.79    9.9
2130 364542.000  -3961765.2097   3349009.2961   3698311.6620   1  26   0.0057   0.0061   0.0047  -0.0050   0.0041  -0.0039  -0.01   12.1
2130 364542.200  -3961765.2111   3349009.2970   3698311.6631   1  26   0.0057   0.0061   0.0047  -0.0050   0.0041  -0.0039   0.19   11.9
2130 364542.400  -3961765.2127   3349009.2990   3698311.6635   1  26   0.0057   0.0062   0.0047  -0.0050   0.0041  -0.0039   0.38   10.3
2130 364542.600  -3961765.2129   3349009.3003   3698311.6646   1  26   0.0057   0.0062   0.0047  -0.0050   0.0041  -0.0039   0.58   12.1
2130 364542.800  -3961765.2139   3349009.3023   3698311.6633   1  26   0.0057   0.0062   0.0047  -0.0051   0.0042  -0.0039   0.79   11.7
2130 364543.000  -3961765.2099   3349009.2975   3698311.6640   1  26   0.0057   0.0061   0.0047  -0.0050   0.0041  -0.0039  -0.01    9.9
2130 364543.200  -3961765.2108   3349009.2985   3698311.6639   1  26   0.0057   0.0061   0.0047  -0.0050   0.0041  -0.0039   0.19   12.1
2130 364543.400  -3961765.2110   3349009.2977   3698311.6642   1  26   0.0057   0.0062   0.0047  -0.0050   0.0041  -0.0039   0.38   10.9
2130 364543.600  -3961765.2109   3349009.2980   3698311.6637   1  26   0.0057   0.0062   0.0047  -0.0050   0.0041  -0.0039   0.58   11.3
2130 364543.800  -3961765.2107   3349009.2977   3698311.6623   1  26   0.0057   0.0062   0.0047  -0.0051   0.0042  -0.0039   0.79   13.7
2130 364544.000  -3961765.2093   3349009.2968   3698311.6621   1  26   0.0057   0.0061   0.0047  -0.0050   0.0041  -0.0039  -0.01   11.0
2130 364544.200  -3961765.2103   3349009.2958   3698311.6633   1  26   0.0057   0.0061   0.0047  -0.0050   0.0041  -0.0039   0.19   10.8
2130 364544.400  -3961765.2120   3349009.2995   3698311.6642   1  26   0.0057   0.0062   0.0047  -0.0050   0.0041  -0.0039   0.38   12.0
2130 364544.600  -3961765.2130   3349009.3007   3698311.6646   1  26   0.0057   0.0062   0.0047  -0.0050   0.0041  -0.0039   0.58   12.3
2130 364544.800  -3961765.2133   3349009.3003   3698311.6630   1  26   0.0057   0.0062   0.0047  -0.0051   0.0042  -0.0039   0.79   10.7
2130 364545.000  -3961765.2108   3349009.2975   3698311.6635   1  26   0.0057   0.0061   0.0047  -0.0050   0.0041  -0.0039  -0.01   12.0
2130 364545.200  -3961765.2104   3349009.2976   3698311.6634   1  26   0.0057   0.0061   0.0047  -0.0050   0.0041  -0.0039   0.19   11.2
2130 364545.400  -3961765.2122   3349009.2995   3698311.6643   1  26   0.0057   0.0062   0.0047  -0.0050   0.0041  -0.0039   0.38    9.9
2130 364545.600  -3961765.2124   3349009.3001   3698311.6633   1  26   0.0057   0.0062   0.0047  -0.0050   0.0041  -0.0039   0.58   11.2
2130 364545.800  -3961765.2122   3349009.3004   3698311.6642   1  26   0.0057   0.0063   0.0050  -0.0051   0.0044  -0.0040   0.79   11.3
2130 364546.000  -3961765.2092   3349009.2964   3698311.6611   1  26   0.0057   0.0061   0.0047  -0.0050   0.0041  -0.0039  -0.01   12.5
2130 364546.200  -3961765.2091   3349009.2962   3698311.6614   1  26   0.0057   0.0061   0.0047  -0.0050   0.0041  -0.0039   0.19   11.2
2130 364546.400  -3961765.2083   3349009.2952   3698311.6619   1  26   0.0057   0.0062   0.0047  -0.0050   0.0041  -0.0039   0.38   11.2
2130 364546.600  -3961765.2092   3349009.2970   3698311.6610   1  26   0.0057   0.0062   0.0047  -0.0050   0.0041  -0.0039   0.58   10.4
2130 364546.800  -3961765.2112   3349009.2982   3698311.6622   1  26   0.0057   0.0062   0.0047  -0.0051   0.0042  -0.0039   0.79   12.2
2130 364547.000  -3961765.2092   3349009.2958   3698311.6630   1  26   0.0057   0.0061   0.0047  -0.0050   0.0041  -0.0039  -0.01   10.7
2130 364547.200  -3961765.2081   3349009.2959   3698311.6613   1  26   0.0057   0.0061   0.0047  -0.0050   0.0041  -0.0039   0.19   11.1
2130 364547.400  -3961765.2087   3349009.2965   3698311.6618   1  26   0.0057   0.0062   0.0047  -0.0050   0.0041  -0.0039   0.38   12.1
2130 364547.600  -3961765.2078   3349009.2953   3698311.6621   1  26   0.0057   0.0062   0.0047  -0.0050   0.0041  -0.0039   0.58   12.3
2130 364547.800  -3961765.2075   3349009.2954   3698311.6626   1  26   0.0057   0.0062   0.0047  -0.0051   0.0042  -0.0039   0.79   10.9
2130 364548.000  -3961765.2079   3349009.2948   3698311.6617   1  26   0.0057   0.0061   0.0047  -0.0050   0.0041  -0.0039  -0.01   13.9
2130 364548.200  -3961765.2090   3349009.2968   3698311.6623   1  26   0.0057   0.0061   0.0047  -0.0050   0.0041  -0.0039   0.19   10.3
2130 364548.400  -3961765.2085   3349009.2948   3698311.6614   1  26   0.0057   0.0062   0.0047  -0.0050   0.0041  -0.0039   0.38   11.6
2130 364548.600  -3961765.2093   3349009.2952   3698311.6627   1  26   0.0057   0.0062   0.0047  -0.0050   0.0041  -0.0039   0.58   12.3
2130 364548.800  -3961765.2085   3349009.2951   3698311.6621   1  26   0.0057   0.0062   0.0047  -0.0051   0.0042  -0.0039   0.79   11.8
2130 364549.000  -3961765.2096   3349009.2955   3698311.6617   1  26   0.0057   0.0061   0.0047  -0.0050   0.0041  -0.0039  -0.01   12.9
2130 364549.200  -3961765.2090   3349009.2958   3698311.6623   1  26   0.0057   0.0061   0.0047  -0.0050   0.0041  -0.0039   0.19   11.3
2130 364549.400  -3961765.2089   3349009.2947   3698311.6627   1  26   0.0057   0.0062   0.0047  -0.0050   0.0041  -0.0039   0.38   10.2
2130 364549.600  -3961765.2099   3349009.2973   3698311.6635   1  26   0.0057   0.0063   0.0049  -0.0051   0.0043  -0.0040   0.58   10.0
2130 364549.800  -3961765.2098   3349009.2972   3698311.6641   1  26   0.0057   0.0063   0.0049  -0.0051   0.0044  -0.0040   0.79   10.4
2130 364550.000  -3961765.2094   3349009.2973   3698311.6631   1  26   0.0057   0.0062   0.0049  -0.0051   0.0043  -0.0040  -0.01   10.7
2130 364550.200  -3961765.2095   3349009.2974   3698311.6637   1  26   0.0057   0.0061   0.0047  -0.0050   0.0041  -0.0039   0.19   11.7
2130 364550.400  -3961765.2095   3349009.2966   3698311.6622   1  26   0.0057   0.0062   0.0047  -0.0050   0.0041  -0.0039   0.38   10.0
2130 364550.600  -3961765.2100   3349009.2963   3698311.6631   1  26   0.0057   0.0062   0.0047  -0.0050   0.0041  -0.0039   0.58   11.9
2130 364550.800  -3961765.2101   3349009.2970   3698311.6639   1  26   0.0057   0.0062   0.0047  -0.0051   0.0042  -0.0039   0.79   10.8
2130 364551.000  -3961765.2091   3349009.2954   3698311.6632   1  26   0.0057   0.0061   0.0047  -0.0050   0.0041  -0.0039  -0.01   10.0
2130 364551.200  -3961765.2084   3349009.2970   3698311.6619   1  26   0.0057   0.0061   0.0047  -0.0050   0.0041  -0.0039   0.19    9.4
2130 364551.400  -3961765.2118   3349009.2995   3698311.6640   1  26   0.0057   0.0062   0.0047  -0.0050   0.0041  -0.0039   0.38    9.8
2130 364551.600  -3961765.2113   3349009.2993   3698311.6637   1  26   0.0057   0.0062   0.0047  -0.0050   0.0041  -0.0039   0.58   11.4
2130 364551.800  -3961765.2105   3349009.2986   3698311.6623   1  26   0.0057   0.0062   0.0047  -0.0051   0.0042  -0.0039   0.79    9.9
2130 364552.000  -3961765.2086   3349009.2964   3698311.6612   1  26   0.0057   0.0061   0.0047  -0.0050   0.0041  -0.0039  -0.01   11.4
2130 364552.200  -3961765.2083   3349009.2971   3698311.6611   1  26   0.0057   0.0061   0.0047  -0.0050   0.0041  -0.0039   0.19   10.2
2130 364552.400  -3961765.2101   3349009.2974   3698311.6622   1  26   0.0057   0.0062   0.0047  -0.0050   0.0041  -0.0039   0.38    9.3
2130 364552.600  -3961765.2097   3349009.2974   3698311.6632   1  26   0.0057   0.0062   0.0047  -0.0050   0.0041  -0.0039   0.58   11.9
2130 364552.800  -3961765.2092   3349009.2971   3698311.6613   1  26   0.0057   0.0062   0.0047  -0.0051   0.0042  -0.0039   0.79   10.0
2130 364553.000  -3961765.2097   3349009.2970   3698311.6636   1  26   0.0057   0.0061   0.0047  -0.0050   0.0041  -0.0039  -0.01    9.4
2130 364553.200  -3961765.2101   3349009.2970   3698311.6635   1  26   0.0057   0.0061   0.0047  -0.0050   0.0041  -0.0039   0.19   11.2
2130 364553.400  -3961765.2106   3349009.2977   3698311.6638   1  26   0.0057   0.0062   0.0047  -0.0050   0.0041  -0.0039   0.38    9.8
2130 364553.600  -3961765.2083   3349009.2955   3698311.6635   1  26   0.0057   0.0062   0.0047  -0.0050   0.0041  -0.0039   0.58   10.2
2130 364553.800  -3961765.2076   3349009.2953   3698311.6632   1  26   0.0057   0.0062   0.0047  -0.0051   0.0042  -0.0039   0.79    8.7
2130 364554.000  -3961765.2097   3349009.2964   3698311.6608   1  26   0.0057   0.0061   0.0047  -0.0050   0.0041  -0.0039  -0.01   12.4
2130 364554.200  -3961765.2107   3349009.2972   3698311.6620   1  26   0.0057   0.0061   0.0047  -0.0050   0.0041  -0.0039   0.19   10.4
2130 364554.400  -3961765.2108   3349009.2987   3698311.6627   1  26   0.0057   0.0062   0.0047  -0.0050   0.0041  -0.0039   0.38   12.2
2130 364554.600  -3961765.2101   3349009.2983   3698311.6616   1  26   0.0057   0.0062   0.0047  -0.0050   0.0041  -0.0039   0.58   11.0
2130 364554.800  -3961765.2119   3349009.2988   3698311.6632   1  26   0.0057   0.0062   0.0047  -0.0051   0.0042  -0.0039   0.79   10.7
2130 364555.000  -3961765.2081   3349009.2967   3698311.6617   1  26   0.0057   0.0061   0.0047  -0.0050   0.0041  -0.0039  -0.01    9.5
2130 364555.200  -3961765.2091   3349009.2973   3698311.6612   1  26   0.0057   0.0061   0.0047  -0.0050   0.0041  -0.0039   0.19    9.4
2130 364555.400  -3961765.2082   3349009.2964   3698311.6626   1  26   0.0057   0.0062   0.0047  -0.0050   0.0041  -0.0039   0.38    8.7
2130 364555.600  -3961765.2085   3349009.2968   3698311.6623   1  26   0.0057   0.0062   0.0047  -0.0050   0.0041  -0.0039   0.58   10.4
2130 364555.800  -3961765.2084   3349009.2972   3698311.6626   1  26   0.0057   0.0062   0.0047  -0.0051   0.0042  -0.0039   0.79   10.4
2130 364556.000  -3961765.2081   3349009.2948   3698311.6615   1  26   0.0057   0.0061   0.0047  -0.0050   0.0041  -0.0039  -0.01    9.9
2130 364556.200  -3961765.2090   3349009.2965   3698311.6614   1  26   0.0057   0.0061   0.0047  -0.0050   0.0041  -0.0039   0.19    9.0
2130 364556.400  -3961765.2094   3349009.2962   3698311.6621   1  26   0.0057   0.0062   0.0047  -0.0050   0.0041  -0.0039   0.38    9.3
2130 364556.600  -3961765.2078   3349009.2964   3698311.6613   1  26   0.0057   0.0062   0.0047  -0.0050   0.0041  -0.0039   0.58   10.4
2130 364556.800  -3961765.2072   3349009.2941   3698311.6606   1  26   0.0057   0.0062   0.0047  -0.0051   0.0042  -0.0039   0.79   10.5
2130 364557.000  -3961765.2093   3349009.2970   3698311.6626   1  26   0.0057   0.0061   0.0047  -0.0050   0.0041  -0.0039  -0.01    9.0
2130 364557.200  -3961765.2097   3349009.2969   3698311.6621   1  26   0.0057   0.0061   0.0047  -0.0050   0.0041  -0.0039   0.19    9.5
2130 364557.400  -3961765.2086   3349009.2965   3698311.6626   1  26   0.0057   0.0062   0.0047  -0.0050   0.0041  -0.0039   0.38    9.8
2130 364557.600  -3961765.2090   3349009.2980   3698311.6621   1  26   0.0057   0.0062   0.0047  -0.0050   0.0041  -0.0039   0.58    9.2
2130 364557.800  -3961765.2085   3349009.2970   3698311.6622   1  26   0.0057   0.0062   0.0047  -0.0051   0.0042  -0.0039   0.79    9.3
2130 364558.000  -3961765.2089   3349009.2965   3698311.6622   1  26   0.0057   0.0061   0.0047  -0.0050   0.0041  -0.0039  -0.01   10.5
2130 364558.200  -3961765.2076   3349009.2954   3698311.6613   1  26   0.0057   0.0061   0.0047  -0.0050   0.0041  -0.0039   0.19    9.5
2130 364558.400  -3961765.2079   3349009.2964   3698311.6618   1  26   0.0057   0.0062   0.0047  -0.0050   0.0041  -0.0039   0.38   11.8
2130 364558.600  -3961765.2087   3349009.2965   3698311.6618   1  26   0.0057   0.0062   0.0047  -0.0050   0.0041  -0.0039   0.58    9.8
2130 364558.800  -3961765.2091   3349009.2977   3698311.6619   1  26   0.0057   0.0062   0.0047  -0.0051   0.0042  -0.0039   0.79   10.9
2130 364559.000  -3961765.2103   3349009.2982   3698311.6650   1  26   0.0057   0.0061   0.0047  -0.0050   0.0041  -0.0039  -0.01   11.3
2130 364559.200  -3961765.2121   3349009.2999   3698311.6648   1  26   0.0057   0.0061   0.0047  -0.0050   0.0041  -0.0039   0.19    9.5
2130 364559.400  -3961765.2117   3349009.2992   3698311.6656   1  26   0.0057   0.0062   0.0047  -0.0050   0.0041  -0.0039   0.38   10.7
2130 364559.600  -3961765.2122   3349009.3000   3698311.6644   1  26   0.0057   0.0062   0.0047  -0.0050   0.0041  -0.0039   0.58   12.2
2130 364559.800  -3961765.2124   3349009.3010   3698311.6658   1  26   0.0057   0.0062   0.0047  -0.0050   0.0042  -0.0039   0.79   12.3
2130 364560.000  -3961765.2080   3349009.2956   3698311.6613   1  26   0.0057   0.0061   0.0047  -0.0050   0.0041  -0.0039  -0.01   10.6
2130 364560.200  -3961765.2089   3349009.2977   3698311.6627   1  26   0.0057   0.0061   0.0047  -0.0050   0.0041  -0.0039   0.19   11.3
2130 364560.400  -3961765.2090   3349009.2981   3698311.6627   1  26   0.0057   0.0062   0.0047  -0.0050   0.0041  -0.0039   0.38   10.8
2130 364560.600  -3961765.2097   3349009.2974   3698311.6627   1  26   0.0057   0.0062   0.0047  -0.0050   0.0041  -0.0039   0.58   12.6
2130 364560.800  -3961765.2088   3349009.2981   3698311.6634   1  26   0.0057   0.0062   0.0047  -0.0050   0.0042  -0.0039   0.79   10.0
2130 364561.000  -3961765.2110   3349009.2970   3698311.6624   1  26   0.0057   0.0061   0.0047  -0.0050   0.0041  -0.0039  -0.01   10.2
2130 364561.200  -3961765.2104   3349009.2957   3698311.6614   1  26   0.0057   0.0061   0.0047  -0.0050   0.0041  -0.0039   0.19    9.8
2130 364561.400  -3961765.2111   3349009.2960   3698311.6631   1  26   0.0057   0.0062   0.0047  -0.0050   0.0041  -0.0039   0.38   12.3
2130 364561.600  -3961765.2110   3349009.2951   3698311.6628   1  26   0.0057   0.0062   0.0047  -0.0050   0.0041  -0.0039   0.58   11.2
2130 364561.800  -3961765.2105   3349009.2954   3698311.6621   1  26   0.0057   0.0062   0.0047  -0.0050   0.0042  -0.0039   0.79   12.3
2130 364562.000  -3961765.2094   3349009.2969   3698311.6612   1  26   0.0057   0.0061   0.0047  -0.0050   0.0041  -0.0039  -0.01   10.4
2130 364562.200  -3961765.2101   3349009.2967   3698311.6634   1  26   0.0057   0.0061   0.0047  -0.0050   0.0041  -0.0039   0.19   10.5
2130 364562.400  -3961765.2087   3349009.2963   3698311.6632   1  26   0.0057   0.0062   0.0047  -0.0050   0.0041  -0.0039   0.38   10.0
2130 364562.600  -3961765.2103   3349009.2983   3698311.6635   1  26   0.0057   0.0062   0.0047  -0.0050   0.0041  -0.0039   0.58   10.0
2130 364562.800  -3961765.2085   3349009.2968   3698311.6635   1  26   0.0057   0.0062   0.0047  -0.0050   0.0041  -0.0039   0.79   10.2
2130 364563.000  -3961765.2093   3349009.2952   3698311.6614   1  26   0.0057   0.0061   0.0047  -0.0050   0.0041  -0.0039  -0.01   10.7
2130 364563.200  -3961765.2089   3349009.2957   3698311.6612   1  26   0.0057   0.0061   0.0047  -0.0050   0.0041  -0.0039   0.19   11.0
2130 364563.400  -3961765.2108   3349009.2982   3698311.6616   1  26   0.0057   0.0062   0.0047  -0.0050   0.0041  -0.0039   0.38    8.9
2130 364563.600  -3961765.2093   3349009.2972   3698311.6622   1  26   0.0057   0.0062   0.0047  -0.0050   0.0041  -0.0039   0.58    9.6
2130 364563.800  -3961765.2109   3349009.2979   3698311.6618   1  26   0.0057   0.0062   0.0047  -0.0050   0.0041  -0.0039   0.79    9.5
2130 364564.000  -3961765.2103   3349009.2961   3698311.6626   1  26   0.0057   0.0061   0.0047  -0.0050   0.0041  -0.0039  -0.01    9.9
2130 364564.200  -3961765.2106   3349009.2969   3698311.6627   1  26   0.0057   0.0061   0.0047  -0.0050   0.0041  -0.0039   0.19   10.3
2130 364564.400  -3961765.2117   3349009.2980   3698311.6637   1  26   0.0057   0.0062   0.0047  -0.0050   0.0041  -0.0039   0.38    8.8
2130 364564.600  -3961765.2112   3349009.2967   3698311.6634   1  26   0.0057   0.0062   0.0047  -0.0050   0.0041  -0.0039   0.58    9.4
2130 364564.800  -3961765.2116   3349009.2990   3698311.6631   1  26   0.0057   0.0062   0.0047  -0.0050   0.0041  -0.0039   0.79    9.7
2130 364565.000  -3961765.2108   3349009.2981   3698311.6637   1  26   0.0057   0.0061   0.0047  -0.0050   0.0041  -0.0039  -0.01    9.5
2130 364565.200  -3961765.2080   3349009.2949   3698311.6619   1  26   0.0057   0.0061   0.0047  -0.0050   0.0041  -0.0039   0.19   11.2
2130 364565.400  -3961765.2098   3349009.2972   3698311.6633   1  26   0.0057   0.0062   0.0047  -0.0050   0.0041  -0.0039   0.38    9.8
2130 364565.600  -3961765.2098   3349009.2979   3698311.6617   1  26   0.0057   0.0062   0.0047  -0.0050   0.0041  -0.0039   0.58   10.2
2130 364565.800  -3961765.2119   3349009.3000   3698311.6640   1  26   0.0057   0.0062   0.0047  -0.0050   0.0041  -0.0039   0.79   10.7
2130 364566.000  -3961765.2097   3349009.2964   3698311.6624   1  26   0.0057   0.0061   0.0047  -0.0050   0.0041  -0.0039  -0.01    9.6
2130 364566.200  -3961765.2110   3349009.2969   3698311.6629   1  26   0.0057   0.0061   0.0047  -0.0050   0.0041  -0.0039   0.19   11.0
2130 364566.400  -3961765.2107   3349009.2977   3698311.6618   1  26   0.0057   0.0062   0.0047  -0.0050   0.0041  -0.0039   0.38    9.6
2130 364566.600  -3961765.2103   3349009.2981   3698311.6630   1  26   0.0057   0.0062   0.0047  -0.0050   0.0041  -0.0039   0.58    9.0
2130 364566.800  -3961765.2129   3349009.2999   3698311.6634   1  26   0.0057   0.0062   0.0047  -0.0050   0.0041  -0.0039   0.79    9.5
2130 364567.000  -3961765.2109   3349009.2967   3698311.6601   1  26   0.0057   0.0061   0.0046  -0.0050   0.0041  -0.0039  -0.01   11.1
2130 364567.200  -3961765.2116   3349009.2976   3698311.6624   1  26   0.0057   0.0061   0.0047  -0.0050   0.0041  -0.0039   0.19   11.6
2130 364567.400  -3961765.2110   3349009.2985   3698311.6616   1  26   0.0057   0.0062   0.0047  -0.0050   0.0041  -0.0039   0.38   11.9
2130 364567.600  -3961765.2102   3349009.2964   3698311.6605   1  26   0.0057   0.0062   0.0047  -0.0050   0.0041  -0.0039   0.58   12.5
2130 364567.800  -3961765.2124   3349009.2981   3698311.6620   1  26   0.0057   0.0062   0.0047  -0.0050   0.0041  -0.0039   0.79   13.2
2130 364568.000  -3961765.2106   3349009.2979   3698311.6623   1  26   0.0057   0.0061   0.0046  -0.0050   0.0041  -0.0039  -0.01   10.1
2130 364568.200  -3961765.2103   3349009.2985   3698311.6623   1  26   0.0057   0.0061   0.0047  -0.0050   0.0041  -0.0039   0.19    8.5
2130 364568.400  -3961765.2119   3349009.2991   3698311.6619   1  26   0.0057   0.0062   0.0047  -0.0050   0.0041  -0.0039   0.38   11.6
2130 364568.600  -3961765.2122   3349009.3012   3698311.6634   1  26   0.0057   0.0063   0.0049  -0.0051   0.0043  -0.0040   0.58    9.2
2130 364568.800  -3961765.2123   3349009.3012   3698311.6638   1  26   0.0057   0.0063   0.0049  -0.0051   0.0044  -0.0040   0.79    9.3
2130 364569.000  -3961765.2093   3349009.2973   3698311.6633   1  26   0.0057   0.0062   0.0049  -0.0051   0.0043  -0.0040  -0.01    8.9
2130 364569.200  -3961765.2101   3349009.2977   3698311.6610   1  26   0.0057   0.0061   0.0047  -0.0050   0.0041  -0.0039   0.19    9.4
2130 364569.400  -3961765.2081   3349009.2961   3698311.6596   1  26   0.0057   0.0062   0.0047  -0.0050   0.0041  -0.0039   0.38    9.5
2130 364569.600  -3961765.2106   3349009.2983   3698311.6621   1  26   0.0057   0.0062   0.0047  -0.0050   0.0041  -0.0039   0.58   10.5
2130 364569.800  -3961765.2107   3349009.2982   3698311.6627   1  26   0.0057   0.0062   0.0047  -0.0050   0.0041  -0.0039   0.79   10.3
2130 364570.000  -3961765.2106   3349009.2971   3698311.6636   1  26   0.0057   0.0061   0.0046  -0.0050   0.0041  -0.0039  -0.01   10.0
2130 364570.200  -3961765.2095   3349009.2967   3698311.6630   1  26   0.0057   0.0061   0.0047  -0.0050   0.0041  -0.0039   0.19   11.2
2130 364570.400  -3961765.2091   3349009.2977   3698311.6622   1  26   0.0057   0.0062   0.0047  -0.0050   0.0041  -0.0039   0.38   10.4
2130 364570.600  -3961765.2109   3349009.2983   3698311.6624   1  26   0.0057   0.0062   0.0047  -0.0050   0.0041  -0.0039   0.58    9.2
2130 364570.800  -3961765.2100   3349009.2969   3698311.6624   1  26   0.0057   0.0062   0.0047  -0.0050   0.0041  -0.0039   0.79   10.7
2130 364571.000  -3961765.2103   3349009.2966   3698311.6611   1  26   0.0057   0.0061   0.0046  -0.0050   0.0041  -0.0039  -0.01   10.8
2130 364571.200  -3961765.2107   3349009.2981   3698311.6627   1  26   0.0057   0.0061   0.0047  -0.0050   0.0041  -0.0039   0.19   10.5
2130 364571.400  -3961765.2095   3349009.2959   3698311.6612   1  26   0.0057   0.0062   0.0047  -0.0050   0.0041  -0.0039   0.38   10.5
2130 364571.600  -3961765.2086   3349009.2956   3698311.6621   1  26   0.0057   0.0062   0.0047  -0.0050   0.0041  -0.0039   0.58   11.9
2130 364571.800  -3961765.2086   3349009.2958   3698311.6611   1  26   0.0057   0.0062   0.0047  -0.0050   0.0041  -0.0039   0.79   12.6
2130 364572.000  -3961765.2080   3349009.2957   3698311.6605   1  26   0.0057   0.0061   0.0046  -0.0050   0.0041  -0.0039  -0.01   11.8
2130 364572.200  -3961765.2087   3349009.2975   3698311.6617   1  26   0.0057   0.0061   0.0047  -0.0050   0.0041  -0.0039   0.19    9.8
2130 364572.400  -3961765.2098   3349009.2980   3698311.6619   1  26   0.0057   0.0062   0.0047  -0.0050   0.0041  -0.0039   0.38   10.4
2130 364572.600  -3961765.2087   3349009.2990   3698311.6619   1  26   0.0057   0.0062   0.0047  -0.0050   0.0041  -0.0039   0.58   12.3
2130 364572.800  -3961765.2082   3349009.2970   3698311.6621   1  26   0.0057   0.0062   0.0047  -0.0050   0.0041  -0.0039   0.79   10.9
2130 364573.000  -3961765.2086   3349009.2964   3698311.6607   1  26   0.0057   0.0061   0.0046  -0.0050   0.0041  -0.0039  -0.01   11.1
2130 364573.200  -3961765.2095   3349009.2985   3698311.6620   1  26   0.0057   0.0061   0.0046  -0.0050   0.0041  -0.0039   0.19   10.8
2130 364573.400  -3961765.2087   3349009.2972   3698311.6624   1  26   0.0057   0.0062   0.0047  -0.0050   0.0041  -0.0039   0.38   11.0
2130 364573.600  -3961765.2091   3349009.2989   3698311.6614   1  26   0.0057   0.0062   0.0047  -0.0050   0.0041  -0.0039   0.58   11.2
2130 364573.800  -3961765.2101   3349009.2993   3698311.6629   1  26   0.0057   0.0062   0.0047  -0.0050   0.0041  -0.0039   0.79   10.4
2130 364574.000  -3961765.2100   3349009.2965   3698311.6609   1  26   0.0057   0.0061   0.0046  -0.0050   0.0041  -0.0039  -0.01   10.6
2130 364574.200  -3961765.2112   3349009.2988   3698311.6628   1  26   0.0057   0.0061   0.0046  -0.0050   0.0041  -0.0039   0.19   12.0
2130 364574.400  -3961765.2096   3349009.2969   3698311.6617   1  26   0.0057   0.0062   0.0047  -0.0050   0.0041  -0.0039   0.38   10.8
2130 364574.600  -3961765.2122   3349009.2988   3698311.6620   1  26   0.0057   0.0062   0.0047  -0.0050   0.0041  -0.0039   0.58   11.2
2130 364574.800  -3961765.2130   3349009.3004   3698311.6642   1  26   0.0057   0.0062   0.0047  -0.0050   0.0041  -0.0039   0.79   11.5
2130 364575.000  -3961765.2089   3349009.2969   3698311.6606   1  26   0.0057   0.0061   0.0046  -0.0050   0.0041  -0.0039  -0.01   12.9
2130 364575.200  -3961765.2112   3349009.2996   3698311.6628   1  26   0.0057   0.0061   0.0046  -0.0050   0.0041  -0.0039   0.19   13.5
2130 364575.400  -3961765.2130   3349009.3007   3698311.6633   1  26   0.0057   0.0062   0.0047  -0.0050   0.0041  -0.0039   0.38   12.4
2130 364575.600  -3961765.2130   3349009.3019   3698311.6648   1  26   0.0057   0.0062   0.0047  -0.0050   0.0041  -0.0039   0.58   10.9
2130 364575.800  -3961765.2146   3349009.3028   3698311.6660   1  26   0.0057   0.0062   0.0047  -0.0050   0.0041  -0.0039   0.79   12.8
2130 364576.000  -3961765.2097   3349009.2978   3698311.6617   1  26   0.0057   0.0061   0.0046  -0.0050   0.0041  -0.0039  -0.01   12.6
2130 364576.200  -3961765.2112   3349009.2984   3698311.6628   1  26   0.0057   0.0061   0.0046  -0.0050   0.0041  -0.0039   0.19   12.1
2130 364576.400  -3961765.2125   3349009.2998   3698311.6637   1  26   0.0057   0.0062   0.0047  -0.0050   0.0041  -0.0039   0.38   10.8
2130 364576.600  -3961765.2132   3349009.3004   3698311.6649   1  26   0.0057   0.0062   0.0047  -0.0050   0.0041  -0.0039   0.58   11.1
2130 364576.800  -3961765.2133   3349009.3008   3698311.6641   1  26   0.0057   0.0062   0.0047  -0.0050   0.0041  -0.0039   0.79   12.4
2130 364577.000  -3961765.2102   3349009.2972   3698311.6627   1  26   0.0057   0.0061   0.0046  -0.0050   0.0041  -0.0039  -0.01    9.8
2130 364577.200  -3961765.2108   3349009.2987   3698311.6632   1  26   0.0057   0.0061   0.0046  -0.0050   0.0041  -0.0039   0.19   11.2
2130 364577.400  -3961765.2111   3349009.2992   3698311.6635   1  26   0.0057   0.0062   0.0047  -0.0050   0.0041  -0.0039   0.38   11.7
2130 364577.600  -3961765.2111   3349009.2987   3698311.6637   1  26   0.0057   0.0062   0.0047  -0.0050   0.0041  -0.0039   0.58   13.4
2130 364577.800  -3961765.2136   3349009.3012   3698311.6645   1  26   0.0057   0.0062   0.0047  -0.0050   0.0041  -0.0039   0.79   11.3
2130 364578.000  -3961765.2096   3349009.2967   3698311.6612   1  26   0.0057   0.0061   0.0046  -0.0050   0.0041  -0.0038  -0.01    9.6
2130 364578.200  -3961765.2109   3349009.2982   3698311.6631   1  26   0.0057   0.0061   0.0046  -0.0050   0.0041  -0.0039   0.19   11.1
2130 364578.400  -3961765.2091   3349009.2980   3698311.6616   1  26   0.0057   0.0062   0.0047  -0.0050   0.0041  -0.0039   0.38    9.6
2130 364578.600  -3961765.2117   3349009.3019   3698311.6636   1  26   0.0057   0.0062   0.0047  -0.0050   0.0041  -0.0039   0.58    9.5
2130 364578.800  -3961765.2097   3349009.2986   3698311.6607   1  26   0.0057   0.0062   0.0047  -0.0050   0.0041  -0.0039   0.79   10.1
2130 364579.000  -3961765.2120   3349009.2994   3698311.6635   1  26   0.0057   0.0061   0.0046  -0.0050   0.0041  -0.0038  -0.01   11.6
2130 364579.200  -3961765.2122   3349009.2984   3698311.6635   1  26   0.0057   0.0061   0.0046  -0.0050   0.0041  -0.0039   0.19   12.2
2130 364579.400  -3961765.2114   3349009.2991   3698311.6631   1  26   0.0057   0.0062   0.0047  -0.0050   0.0041  -0.0039   0.38   12.4
2130 364579.600  -3961765.2103   3349009.2963   3698311.6621   1  26   0.0057   0.0062   0.0047  -0.0050   0.0041  -0.0039   0.58   12.8
2130 364579.800  -3961765.2108   3349009.2973   3698311.6631   1  26   0.0057   0.0062   0.0047  -0.0050   0.0041  -0.0039   0.79   12.0
2130 364580.000  -3961765.2100   3349009.2976   3698311.6625   1  26   0.0057   0.0061   0.0046  -0.0050   0.0041  -0.0038  -0.01   11.6
2130 364580.200  -3961765.2091   3349009.2970   3698311.6618   1  26   0.0057   0.0061   0.0046  -0.0050   0.0041  -0.0039   0.19   11.7
2130 364580.400  -3961765.2097   3349009.2978   3698311.6621   1  26   0.0057   0.0062   0.0047  -0.0050   0.0041  -0.0039   0.38   10.1
2130 364580.600  -3961765.2097   3349009.2991   3698311.6630   1  26   0.0057   0.0062   0.0047  -0.0050   0.0041  -0.0039   0.58   11.0
2130 364580.800  -3961765.2087   3349009.2980   3698311.6615   1  26   0.0057   0.0062   0.0047  -0.0050   0.0041  -0.0039   0.79   11.7
2130 364581.000  -3961765.2104   3349009.2983   3698311.6623   1  26   0.0057   0.0061   0.0046  -0.0050   0.0041  -0.0038  -0.01   13.0
2130 364581.200  -3961765.2104   3349009.2990   3698311.6621   1  26   0.0057   0.0061   0.0046  -0.0050   0.0041  -0.0039   0.19   12.7
2130 364581.400  -3961765.2117   3349009.2991   3698311.6641   1  26   0.0057   0.0062   0.0047  -0.0050   0.0041  -0.0039   0.38   11.9
2130 364581.600  -3961765.2115   3349009.2994   3698311.6641   1  26   0.0057   0.0062   0.0047  -0.0050   0.0041  -0.0039   0.58   10.6
2130 364581.800  -3961765.2097   3349009.2981   3698311.6634   1  26   0.0057   0.0062   0.0047  -0.0050   0.0041  -0.0039   0.79   11.8
2130 364582.000  -3961765.2113   3349009.2988   3698311.6629   1  26   0.0057   0.0061   0.0046  -0.0050   0.0041  -0.0038  -0.01   11.6
2130 364582.200  -3961765.2085   3349009.2965   3698311.6628   1  26   0.0057   0.0061   0.0046  -0.0050   0.0041  -0.0039   0.19    9.8
2130 364582.400  -3961765.2085   3349009.2967   3698311.6628   1  26   0.0057   0.0062   0.0047  -0.0050   0.0041  -0.0039   0.38   11.6
2130 364582.600  -3961765.2081   3349009.2947   3698311.6618   1  26   0.0057   0.0062   0.0047  -0.0050   0.0041  -0.0039   0.58   13.8
2130 364582.800  -3961765.2070   3349009.2944   3698311.6634   1  26   0.0057   0.0062   0.0047  -0.0050   0.0041  -0.0039   0.79   12.6
2130 364583.000  -3961765.2094   3349009.2986   3698311.6609   1  26   0.0057   0.0061   0.0046  -0.0050   0.0041  -0.0038  -0.01   13.3
2130 364583.200  -3961765.2092   3349009.2972   3698311.6608   1  26   0.0057   0.0061   0.0046  -0.0050   0.0041  -0.0039   0.19   11.1
2130 364583.400  -3961765.2088   3349009.2973   3698311.6619   1  26   0.0057   0.0062   0.0047  -0.0050   0.0041  -0.0039   0.38   11.4
2130 364583.600  -3961765.2078   3349009.2964   3698311.6613   1  26   0.0057   0.0062   0.0047  -0.0050   0.0041  -0.0039   0.58   16.2
2130 364583.800  -3961765.2066   3349009.2950   3698311.6609   1  26   0.0057   0.0062   0.0047  -0.0050   0.0041  -0.0039   0.79   12.9
2130 364584.000  -3961765.2121   3349009.3005   3698311.6652   1  26   0.0057   0.0062   0.0049  -0.0051   0.0043  -0.0040  -0.01   12.4
2130 364584.200  -3961765.2114   3349009.2992   3698311.6637   1  26   0.0057   0.0062   0.0049  -0.0051   0.0043  -0.0040   0.19   13.3
2130 364584.400  -3961765.2120   3349009.2995   3698311.6650   1  26   0.0057   0.0063   0.0049  -0.0051   0.0043  -0.0040   0.38   12.3
2130 364584.600  -3961765.2104   3349009.2990   3698311.6638   1  26   0.0057   0.0063   0.0049  -0.0051   0.0043  -0.0040   0.58   12.7
2130 364584.800  -3961765.2115   3349009.2988   3698311.6642   1  26   0.0057   0.0063   0.0049  -0.0051   0.0043  -0.0040   0.79   12.6
2130 364585.000  -3961765.2124   3349009.3010   3698311.6655   1  26   0.0057   0.0062   0.0049  -0.0051   0.0043  -0.0040  -0.01   12.3
2130 364585.200  -3961765.2111   3349009.3000   3698311.6656   1  26   0.0057   0.0062   0.0049  -0.0051   0.0043  -0.0040   0.19   11.6
2130 364585.400  -3961765.2131   3349009.3016   3698311.6660   1  26   0.0057   0.0063   0.0049  -0.0051   0.0043  -0.0040   0.38   11.7
2130 364585.600  -3961765.2119   3349009.2992   3698311.6648   1  26   0.0057   0.0063   0.0049  -0.0051   0.0043  -0.0040   0.58   10.9
2130 364585.800  -3961765.2141   3349009.3025   3698311.6659   1  26   0.0057   0.0063   0.0049  -0.0051   0.0043  -0.0040   0.79   15.7
2130 364586.000  -3961765.2134   3349009.3024   3698311.6664   1  26   0.0057   0.0062   0.0049  -0.0051   0.0043  -0.0040  -0.01   13.5
2130 364586.200  -3961765.2141   3349009.3029   3698311.6665   1  26   0.0057   0.0062   0.0049  -0.0051   0.0043  -0.0040   0.19   12.5
2130 364586.400  -3961765.2133   3349009.3015   3698311.6656   1  26   0.0057   0.0063   0.0049  -0.0051   0.0043  -0.0040   0.38   13.9
2130 364586.600  -3961765.2137   3349009.3018   3698311.6664   1  26   0.0057   0.0063   0.0049  -0.0051   0.0043  -0.0040   0.58   15.2
2130 364586.800  -3961765.2125   3349009.3013   3698311.6660   1  26   0.0057   0.0063   0.0049  -0.0051   0.0043  -0.0040   0.79   10.5
2130 364587.000  -3961765.2128   3349009.3010   3698311.6670   1  26   0.0057   0.0062   0.0049  -0.0051   0.0043  -0.0040  -0.01   13.6
2130 364587.200  -3961765.2134   3349009.3008   3698311.6658   1  26   0.0057   0.0062   0.0049  -0.0051   0.0043  -0.0040   0.19   14.1
2130 364587.400  -3961765.2124   3349009.3017   3698311.6669   1  26   0.0057   0.0063   0.0049  -0.0051   0.0043  -0.0040   0.38   12.6
2130 364587.600  -3961765.2128   3349009.3015   3698311.6657   1  26   0.0057   0.0063   0.0049  -0.0051   0.0043  -0.0040   0.58   16.6
2130 364587.800  -3961765.2110   3349009.3006   3698311.6650   1  26   0.0057   0.0063   0.0049  -0.0051   0.0043  -0.0040   0.79   12.8
2130 364588.000  -3961765.2119   3349009.3015   3698311.6659   1  26   0.0057   0.0062   0.0049  -0.0051   0.0043  -0.0040  -0.01   12.7
2130 364588.200  -3961765.2133   3349009.3028   3698311.6663   1  26   0.0057   0.0062   0.0049  -0.0051   0.0043  -0.0040   0.19   14.7
2130 364588.400  -3961765.2125   3349009.3019   3698311.6650   1  26   0.0057   0.0063   0.0049  -0.0051   0.0043  -0.0040   0.38   15.1
2130 364588.600  -3961765.2144   3349009.3023   3698311.6680   1  26   0.0057   0.0063   0.0049  -0.0051   0.0043  -0.0040   0.58   13.9
2130 364588.800  -3961765.2125   3349009.3029   3698311.6668   1  26   0.0057   0.0063   0.0049  -0.0051   0.0043  -0.0040   0.79   14.1
2130 364589.000  -3961765.2148   3349009.3028   3698311.6668   1  26   0.0057   0.0062   0.0049  -0.0051   0.0043  -0.0040  -0.01   13.2
2130 364589.200  -3961765.2154   3349009.3032   3698311.6666   1  26   0.0057   0.0062   0.0049  -0.0051   0.0043  -0.0040   0.19   11.4
2130 364589.400  -3961765.2174   3349009.3056   3698311.6679   1  26   0.0057   0.0063   0.0049  -0.0051   0.0043  -0.0040   0.38   11.5
2130 364589.600  -3961765.2190   3349009.3070   3698311.6693   1  26   0.0057   0.0063   0.0049  -0.0051   0.0043  -0.0040   0.58   10.2
2130 364589.800  -3961765.2175   3349009.3072   3698311.6693   1  26   0.0057   0.0063   0.0049  -0.0051   0.0043  -0.0040   0.79   12.6
2130 364590.000  -3961765.2123   3349009.3004   3698311.6660   1  26   0.0057   0.0062   0.0049  -0.0051   0.0043  -0.0040  -0.01   12.0
2130 364590.200  -3961765.2143   3349009.3030   3698311.6680   1  26   0.0057   0.0062   0.0049  -0.0051   0.0043  -0.0040   0.19    9.9
2130 364590.400  -3961765.2164   3349009.3037   3698311.6691   1  26   0.0057   0.0063   0.0049  -0.0051   0.0043  -0.0040   0.38   12.6
2130 364590.600  -3961765.2157   3349009.3034   3698311.6695   1  26   0.0057   0.0063   0.0049  -0.0051   0.0043  -0.0040   0.58   10.9
2130 364590.800  -3961765.2166   3349009.3046   3698311.6691   1  26   0.0057   0.0063   0.0049  -0.0051   0.0043  -0.0040   0.79   10.1
2130 364591.000  -3961765.2118   3349009.3010   3698311.6651   1  26   0.0057   0.0061   0.0046  -0.0050   0.0041  -0.0038  -0.01   12.4
2130 364591.200  -3961765.2129   3349009.3008   3698311.6653   1  26   0.0057   0.0061   0.0046  -0.0050   0.0041  -0.0038   0.19   10.8
2130 364591.400  -3961765.2136   3349009.3030   3698311.6668   1  26   0.0057   0.0062   0.0047  -0.0050   0.0041  -0.0039   0.38   11.0
2130 364591.600  -3961765.2137   3349009.3019   3698311.6654   1  26   0.0057   0.0062   0.0047  -0.0050   0.0041  -0.0039   0.58   12.0
2130 364591.800  -3961765.2147   3349009.3025   3698311.6663   1  26   0.0057   0.0062   0.0047  -0.0050   0.0041  -0.0039   0.79   13.6
2130 364592.000  -3961765.2112   3349009.2986   3698311.6645   1  26   0.0057   0.0061   0.0046  -0.0050   0.0041  -0.0038  -0.01   12.5
2130 364592.200  -3961765.2124   3349009.3000   3698311.6664   1  26   0.0057   0.0061   0.0046  -0.0050   0.0041  -0.0038   0.19   12.8
2130 364592.400  -3961765.2120   3349009.3002   3698311.6660   1  26   0.0057   0.0062   0.0046  -0.0050   0.0041  -0.0039   0.38   12.3
2130 364592.600  -3961765.2122   3349009.2990   3698311.6660   1  26   0.0057   0.0062   0.0047  -0.0050   0.0041  -0.0039   0.58   13.5
2130 364592.800  -3961765.2138   3349009.3013   3698311.6671   1  26   0.0057   0.0062   0.0047  -0.0050   0.0041  -0.0039   0.79   14.3
2130 364593.000  -3961765.2118   3349009.3016   3698311.6660   1  26   0.0057   0.0062   0.0049  -0.0051   0.0043  -0.0040  -0.01   12.5
2130 364593.200  -3961765.2130   3349009.3016   3698311.6669   1  26   0.0057   0.0062   0.0049  -0.0051   0.0043  -0.0040   0.19   13.8
2130 364593.400  -3961765.2116   3349009.3018   3698311.6665   1  26   0.0057   0.0063   0.0049  -0.0051   0.0043  -0.0040   0.38   12.4
2130 364593.600  -3961765.2130   3349009.3018   3698311.6666   1  26   0.0057   0.0063   0.0049  -0.0051   0.0043  -0.0040   0.58   13.7
2130 364593.800  -3961765.2127   3349009.3021   3698311.6667   1  26   0.0057   0.0063   0.0049  -0.0051   0.0043  -0.0040   0.79   13.6
2130 364594.000  -3961765.2117   3349009.3007   3698311.6664   1  26   0.0057   0.0062   0.0049  -0.0051   0.0043  -0.0040  -0.01   12.7
2130 364594.200  -3961765.2113   3349009.3000   3698311.6653   1  26   0.0057   0.0062   0.0049  -0.0051   0.0043  -0.0040   0.19   14.5
2130 364594.400  -3961765.2118   3349009.3003   3698311.6654   1  26   0.0057   0.0063   0.0049  -0.0051   0.0043  -0.0040   0.38   13.0
2130 364594.600  -3961765.2109   3349009.2988   3698311.6663   1  26   0.0057   0.0063   0.0049  -0.0051   0.0043  -0.0040   0.58   11.2
2130 364594.800  -3961765.2106   3349009.3000   3698311.6657   1  26   0.0057   0.0063   0.0049  -0.0051   0.0043  -0.0040   0.79   11.5
2130 364595.000  -3961765.2097   3349009.2995   3698311.6646   1  26   0.0057   0.0062   0.0049  -0.0051   0.0043  -0.0040  -0.01   11.6
2130 364595.200  -3961765.2108   3349009.2997   3698311.6657   1  26   0.0057   0.0062   0.0049  -0.0051   0.0043  -0.0040   0.19    9.6
2130 364595.400  -3961765.2116   3349009.2999   3698311.6654   1  26   0.0057   0.0063   0.0049  -0.0051   0.0043  -0.0040   0.38   13.4
