% program   : RTKPOST ver.2.4.3 b33
% inp file  : C:\Users\denshi\Desktop\Byyize\20201105\rover.obs
% inp file  : C:\Users\denshi\Desktop\Byyize\20201105\base.obs
% inp file  : C:\Users\denshi\Desktop\Byyize\20201105\base.nav
% obs start : 2020/11/05 05:15:09.6 GPST (week2130 364509.6s)
% obs end   : 2020/11/05 05:46:36.4 GPST (week2130 366396.4s)
% pos mode  : kinematic
% freqs     : L1+L2
% solution  : forward
% elev mask : 15.0 deg
% dynamics  : off
% tidecorr  : off
% ionos opt : broadcast
% tropo opt : off
% ephemeris : broadcast
% navi sys  : gps galileo beidou
% amb res   : instantaneous
% val thres : 3.0
% antenna1  :                       ( 0.0000  0.0000  0.0000)
% antenna2  :                       ( 0.0000  0.0000  0.0000)
% ref pos   : -3961905.0100   3348993.7800   3698211.8200
%
% (x/y/z-ecef=WGS84,Q=1:fix,2:float,3:sbas,4:dgps,5:single,6:ppp,ns=# of satellites)
%  GPST                      x-ecef(m)      y-ecef(m)      z-ecef(m)   Q  ns   sdx(m)   sdy(m)   sdz(m)  sdxy(m)  sdyz(m)  sdzx(m) age(s)  ratio
2020/11/05 05:15:09.600  -3961765.2161   3349009.3050   3698311.6643   1  23   0.0067   0.0070   0.0059  -0.0059   0.0050  -0.0049   0.58   12.6
2020/11/05 05:15:09.800  -3961765.2142   3349009.3042   3698311.6632   1  23   0.0067   0.0070   0.0060  -0.0059   0.0050  -0.0049   0.79   14.4
2020/11/05 05:15:10.000  -3961765.2130   3349009.3013   3698311.6648   1  23   0.0066   0.0070   0.0059  -0.0059   0.0049  -0.0049  -0.01   17.0
2020/11/05 05:15:10.200  -3961765.2149   3349009.3037   3698311.6653   1  23   0.0066   0.0070   0.0059  -0.0059   0.0049  -0.0049   0.19   16.6
2020/11/05 05:15:10.400  -3961765.2140   3349009.3035   3698311.6644   1  23   0.0067   0.0070   0.0059  -0.0059   0.0049  -0.0049   0.38   13.6
2020/11/05 05:15:10.600  -3961765.2134   3349009.3028   3698311.6639   1  23   0.0067   0.0070   0.0059  -0.0059   0.0050  -0.0049   0.58   14.2
2020/11/05 05:15:10.800  -3961765.2145   3349009.3033   3698311.6641   1  23   0.0067   0.0070   0.0060  -0.0059   0.0050  -0.0049   0.79   19.1
2020/11/05 05:15:11.000  -3961765.2138   3349009.3028   3698311.6634   1  23   0.0066   0.0070   0.0059  -0.0059   0.0049  -0.0049  -0.01   18.2
2020/11/05 05:15:11.200  -3961765.2135   3349009.3010   3698311.6625   1  23   0.0066   0.0070   0.0059  -0.0059   0.0049  -0.0049   0.19   18.7
2020/11/05 05:15:11.400  -3961765.2145   3349009.3021   3698311.6643   1  23   0.0067   0.0070   0.0059  -0.0059   0.0049  -0.0049   0.38   18.3
2020/11/05 05:15:11.600  -3961765.2143   3349009.3023   3698311.6628   1  23   0.0067   0.0070   0.0059  -0.0059   0.0050  -0.0049   0.58   16.2
2020/11/05 05:15:11.800  -3961765.2161   3349009.3040   3698311.6651   1  23   0.0067   0.0070   0.0060  -0.0059   0.0050  -0.0049   0.79   12.8
2020/11/05 05:15:12.000  -3961765.2155   3349009.3035   3698311.6645   1  23   0.0066   0.0070   0.0059  -0.0059   0.0049  -0.0049  -0.01   14.7
2020/11/05 05:15:12.200  -3961765.2134   3349009.3015   3698311.6647   1  23   0.0066   0.0070   0.0059  -0.0059   0.0049  -0.0049   0.19   16.3
2020/11/05 05:15:12.400  -3961765.2140   3349009.3003   3698311.6635   1  23   0.0067   0.0070   0.0059  -0.0059   0.0049  -0.0049   0.38   14.6
2020/11/05 05:15:12.600  -3961765.2139   3349009.3003   3698311.6641   1  23   0.0067   0.0070   0.0059  -0.0059   0.0050  -0.0049   0.58   16.9
2020/11/05 05:15:12.800  -3961765.2122   3349009.2985   3698311.6638   1  23   0.0067   0.0070   0.0060  -0.0059   0.0050  -0.0049   0.79   14.4
2020/11/05 05:15:13.000  -3961765.2152   3349009.3041   3698311.6650   1  23   0.0066   0.0070   0.0059  -0.0059   0.0049  -0.0049  -0.01   14.7
2020/11/05 05:15:13.200  -3961765.2118   3349009.3008   3698311.6626   1  23   0.0066   0.0070   0.0059  -0.0059   0.0049  -0.0049   0.19   14.7
2020/11/05 05:15:13.400  -3961765.2123   3349009.2998   3698311.6629   1  23   0.0067   0.0070   0.0059  -0.0059   0.0049  -0.0049   0.38   15.1
2020/11/05 05:15:13.600  -3961765.2115   3349009.2987   3698311.6628   1  23   0.0067   0.0070   0.0059  -0.0059   0.0050  -0.0049   0.58   13.1
2020/11/05 05:15:13.800  -3961765.2116   3349009.2985   3698311.6616   1  23   0.0067   0.0070   0.0060  -0.0059   0.0050  -0.0049   0.79   15.2
2020/11/05 05:15:14.000  -3961765.2122   3349009.3013   3698311.6641   1  23   0.0066   0.0070   0.0059  -0.0059   0.0049  -0.0049  -0.01   18.0
2020/11/05 05:15:14.200  -3961765.2129   3349009.3013   3698311.6645   1  23   0.0066   0.0070   0.0059  -0.0059   0.0049  -0.0049   0.19   14.8
2020/11/05 05:15:14.400  -3961765.2137   3349009.3013   3698311.6638   1  23   0.0067   0.0070   0.0059  -0.0059   0.0049  -0.0049   0.38   15.9
2020/11/05 05:15:14.600  -3961765.2152   3349009.3021   3698311.6647   1  23   0.0067   0.0070   0.0059  -0.0059   0.0050  -0.0049   0.58   15.2
2020/11/05 05:15:14.800  -3961765.2141   3349009.3006   3698311.6644   1  23   0.0067   0.0070   0.0060  -0.0059   0.0050  -0.0049   0.79   17.8
2020/11/05 05:15:15.000  -3961765.2127   3349009.3011   3698311.6645   1  23   0.0066   0.0070   0.0059  -0.0059   0.0049  -0.0048  -0.01   12.6
2020/11/05 05:15:15.200  -3961765.2133   3349009.3012   3698311.6650   1  23   0.0066   0.0070   0.0059  -0.0059   0.0049  -0.0049   0.19   18.0
2020/11/05 05:15:15.400  -3961765.2136   3349009.3009   3698311.6651   1  23   0.0067   0.0070   0.0059  -0.0059   0.0049  -0.0049   0.38   17.5
2020/11/05 05:15:15.600  -3961765.2145   3349009.3007   3698311.6642   1  23   0.0067   0.0070   0.0059  -0.0059   0.0050  -0.0049   0.58   18.4
2020/11/05 05:15:15.800  -3961765.2132   3349009.3010   3698311.6641   1  23   0.0067   0.0070   0.0060  -0.0059   0.0050  -0.0049   0.79   14.4
2020/11/05 05:15:16.000  -3961765.2128   3349009.2992   3698311.6640   1  23   0.0066   0.0070   0.0059  -0.0059   0.0049  -0.0048  -0.01   13.4
2020/11/05 05:15:16.200  -3961765.2117   3349009.2997   3698311.6636   1  23   0.0066   0.0070   0.0059  -0.0059   0.0049  -0.0049   0.19   13.4
2020/11/05 05:15:16.400  -3961765.2110   3349009.2984   3698311.6631   1  23   0.0067   0.0070   0.0059  -0.0059   0.0049  -0.0049   0.38   14.9
2020/11/05 05:15:16.600  -3961765.2129   3349009.2989   3698311.6653   1  23   0.0067   0.0070   0.0059  -0.0059   0.0050  -0.0049   0.58   13.2
2020/11/05 05:15:16.800  -3961765.2122   3349009.2984   3698311.6654   1  23   0.0067   0.0070   0.0060  -0.0059   0.0050  -0.0049   0.79   12.8
2020/11/05 05:15:17.000  -3961765.2148   3349009.3018   3698311.6654   1  23   0.0066   0.0070   0.0059  -0.0059   0.0049  -0.0048  -0.01   16.4
2020/11/05 05:15:17.200  -3961765.2135   3349009.3014   3698311.6643   1  23   0.0066   0.0070   0.0059  -0.0059   0.0049  -0.0049   0.19   13.4
2020/11/05 05:15:17.400  -3961765.2125   3349009.2997   3698311.6649   1  23   0.0067   0.0070   0.0059  -0.0059   0.0049  -0.0049   0.38   12.4
2020/11/05 05:15:17.600  -3961765.2142   3349009.3005   3698311.6651   1  23   0.0067   0.0070   0.0059  -0.0059   0.0050  -0.0049   0.58   15.8
2020/11/05 05:15:17.800  -3961765.2136   3349009.2999   3698311.6649   1  23   0.0067   0.0070   0.0060  -0.0059   0.0050  -0.0049   0.79   14.5
2020/11/05 05:15:18.000  -3961765.2143   3349009.3012   3698311.6656   1  23   0.0066   0.0070   0.0059  -0.0059   0.0049  -0.0048  -0.01   18.0
2020/11/05 05:15:18.200  -3961765.2137   3349009.3001   3698311.6646   1  23   0.0066   0.0070   0.0059  -0.0059   0.0049  -0.0049   0.19   16.3
2020/11/05 05:15:18.400  -3961765.2145   3349009.2999   3698311.6656   1  23   0.0067   0.0070   0.0059  -0.0059   0.0049  -0.0049   0.38   16.5
2020/11/05 05:15:18.600  -3961765.2131   3349009.2991   3698311.6643   1  23   0.0067   0.0070   0.0059  -0.0059   0.0050  -0.0049   0.58   17.9
2020/11/05 05:15:18.800  -3961765.2137   3349009.2988   3698311.6646   1  23   0.0067   0.0070   0.0060  -0.0059   0.0050  -0.0049   0.79   16.1
2020/11/05 05:15:19.000  -3961765.2134   3349009.3005   3698311.6634   1  23   0.0066   0.0070   0.0059  -0.0059   0.0049  -0.0048  -0.01   12.2
2020/11/05 05:15:19.200  -3961765.2125   3349009.2989   3698311.6626   1  23   0.0066   0.0070   0.0059  -0.0059   0.0049  -0.0048   0.19   15.8
2020/11/05 05:15:19.400  -3961765.2137   3349009.3003   3698311.6638   1  23   0.0067   0.0070   0.0059  -0.0059   0.0049  -0.0049   0.38   15.7
2020/11/05 05:15:19.600  -3961765.2133   3349009.3002   3698311.6637   1  23   0.0067   0.0070   0.0059  -0.0059   0.0050  -0.0049   0.58   15.6
2020/11/05 05:15:19.800  -3961765.2136   3349009.2995   3698311.6646   1  23   0.0067   0.0070   0.0060  -0.0059   0.0050  -0.0049   0.79   15.1
2020/11/05 05:15:20.000  -3961765.2141   3349009.3008   3698311.6651   1  23   0.0066   0.0070   0.0059  -0.0059   0.0049  -0.0048  -0.01   15.2
2020/11/05 05:15:20.200  -3961765.2150   3349009.3019   3698311.6651   1  23   0.0066   0.0070   0.0059  -0.0059   0.0049  -0.0048   0.19   17.8
2020/11/05 05:15:20.400  -3961765.2151   3349009.3017   3698311.6644   1  23   0.0067   0.0070   0.0059  -0.0059   0.0049  -0.0049   0.38   14.5
2020/11/05 05:15:20.600  -3961765.2147   3349009.3016   3698311.6652   1  23   0.0067   0.0070   0.0059  -0.0059   0.0050  -0.0049   0.58   13.5
2020/11/05 05:15:20.800  -3961765.2141   3349009.2999   3698311.6634   1  23   0.0067   0.0070   0.0060  -0.0059   0.0050  -0.0049   0.79   15.1
2020/11/05 05:15:21.000  -3961765.2158   3349009.3018   3698311.6650   1  23   0.0066   0.0070   0.0059  -0.0059   0.0049  -0.0048  -0.01   13.9
2020/11/05 05:15:21.200  -3961765.2163   3349009.3026   3698311.6656   1  23   0.0066   0.0070   0.0059  -0.0059   0.0049  -0.0048   0.19   13.6
2020/11/05 05:15:21.400  -3961765.2153   3349009.3011   3698311.6647   1  23   0.0067   0.0070   0.0059  -0.0059   0.0049  -0.0049   0.38   12.1
2020/11/05 05:15:21.600  -3961765.2161   3349009.3015   3698311.6646   1  23   0.0067   0.0070   0.0059  -0.0059   0.0050  -0.0049   0.58   12.4
2020/11/05 05:15:21.800  -3961765.2164   3349009.3022   3698311.6656   1  23   0.0067   0.0070   0.0060  -0.0059   0.0050  -0.0049   0.79   14.0
2020/11/05 05:15:22.000  -3961765.2143   3349009.3001   3698311.6638   1  23   0.0066   0.0070   0.0059  -0.0059   0.0049  -0.0048  -0.01   12.2
2020/11/05 05:15:22.200  -3961765.2140   3349009.3001   3698311.6638   1  23   0.0066   0.0070   0.0059  -0.0059   0.0049  -0.0048   0.19   14.2
2020/11/05 05:15:22.400  -3961765.2125   3349009.2977   3698311.6626   1  23   0.0067   0.0070   0.0059  -0.0059   0.0049  -0.0049   0.38   13.0
2020/11/05 05:15:22.600  -3961765.2126   3349009.2980   3698311.6626   1  23   0.0067   0.0070   0.0059  -0.0059   0.0050  -0.0049   0.58   14.2
2020/11/05 05:15:22.800  -3961765.2120   3349009.2977   3698311.6630   1  23   0.0067   0.0070   0.0060  -0.0059   0.0050  -0.0049   0.79   14.9
2020/11/05 05:15:23.000  -3961765.2145   3349009.3001   3698311.6666   1  23   0.0066   0.0070   0.0059  -0.0059   0.0049  -0.0048  -0.01   14.3
2020/11/05 05:15:23.200  -3961765.2142   3349009.2995   3698311.6655   1  23   0.0066   0.0070   0.0059  -0.0059   0.0049  -0.0048   0.19   13.0
2020/11/05 05:15:23.400  -3961765.2132   3349009.2993   3698311.6663   1  23   0.0067   0.0070   0.0059  -0.0059   0.0049  -0.0049   0.38   13.6
2020/11/05 05:15:23.600  -3961765.2145   3349009.2993   3698311.6653   1  23   0.0067   0.0070   0.0059  -0.0059   0.0049  -0.0049   0.58   12.1
2020/11/05 05:15:23.800  -3961765.2150   3349009.2997   3698311.6667   1  23   0.0067   0.0070   0.0060  -0.0059   0.0050  -0.0049   0.79   12.8
2020/11/05 05:15:24.000  -3961765.2149   3349009.2995   3698311.6656   1  23   0.0066   0.0070   0.0059  -0.0059   0.0049  -0.0048  -0.01   13.7
2020/11/05 05:15:24.200  -3961765.2149   3349009.3002   3698311.6643   1  23   0.0066   0.0070   0.0059  -0.0059   0.0049  -0.0048   0.19   14.7
2020/11/05 05:15:24.400  -3961765.2137   3349009.2994   3698311.6644   1  23   0.0067   0.0070   0.0059  -0.0059   0.0049  -0.0049   0.38   13.7
2020/11/05 05:15:24.600  -3961765.2143   3349009.2996   3698311.6657   1  23   0.0067   0.0070   0.0059  -0.0059   0.0049  -0.0049   0.58   15.1
2020/11/05 05:15:24.800  -3961765.2154   3349009.2988   3698311.6659   1  23   0.0067   0.0070   0.0060  -0.0059   0.0050  -0.0049   0.79   17.6
2020/11/05 05:15:25.000  -3961765.2140   3349009.3003   3698311.6648   1  23   0.0066   0.0070   0.0059  -0.0059   0.0049  -0.0048  -0.01   16.2
2020/11/05 05:15:25.200  -3961765.2141   3349009.2999   3698311.6640   1  23   0.0066   0.0070   0.0059  -0.0059   0.0049  -0.0048   0.19   15.1
2020/11/05 05:15:25.400  -3961765.2127   3349009.2990   3698311.6629   1  23   0.0067   0.0070   0.0059  -0.0059   0.0049  -0.0049   0.38   14.3
2020/11/05 05:15:25.600  -3961765.2129   3349009.2978   3698311.6623   1  23   0.0067   0.0070   0.0059  -0.0059   0.0049  -0.0049   0.58   12.2
2020/11/05 05:15:25.800  -3961765.2120   3349009.2980   3698311.6629   1  23   0.0067   0.0070   0.0060  -0.0059   0.0050  -0.0049   0.79   14.1
2020/11/05 05:15:26.000  -3961765.2146   3349009.3014   3698311.6660   1  23   0.0066   0.0070   0.0059  -0.0059   0.0049  -0.0048  -0.01   17.1
2020/11/05 05:15:26.200  -3961765.2147   3349009.3013   3698311.6655   1  23   0.0066   0.0070   0.0059  -0.0059   0.0049  -0.0048   0.19   16.6
2020/11/05 05:15:26.400  -3961765.2125   3349009.2992   3698311.6641   1  23   0.0067   0.0070   0.0059  -0.0059   0.0049  -0.0049   0.38   18.2
2020/11/05 05:15:26.600  -3961765.2133   3349009.2991   3698311.6643   1  23   0.0067   0.0070   0.0059  -0.0059   0.0049  -0.0049   0.58   16.2
2020/11/05 05:15:26.800  -3961765.2154   3349009.3008   3698311.6667   1  23   0.0067   0.0070   0.0060  -0.0059   0.0050  -0.0049   0.79   14.8
2020/11/05 05:15:27.000  -3961765.2153   3349009.3013   3698311.6673   1  23   0.0066   0.0070   0.0059  -0.0059   0.0049  -0.0048  -0.01   17.5
2020/11/05 05:15:27.200  -3961765.2150   3349009.3011   3698311.6670   1  23   0.0066   0.0070   0.0059  -0.0059   0.0049  -0.0048   0.19   16.5
2020/11/05 05:15:27.400  -3961765.2147   3349009.3008   3698311.6669   1  23   0.0067   0.0070   0.0059  -0.0059   0.0049  -0.0049   0.38   16.2
2020/11/05 05:15:27.600  -3961765.2147   3349009.3000   3698311.6672   1  23   0.0067   0.0070   0.0059  -0.0059   0.0049  -0.0049   0.58   16.7
2020/11/05 05:15:27.800  -3961765.2156   3349009.3012   3698311.6673   1  23   0.0067   0.0070   0.0060  -0.0059   0.0050  -0.0049   0.79   16.7
2020/11/05 05:15:28.000  -3961765.2152   3349009.2991   3698311.6666   1  23   0.0066   0.0070   0.0059  -0.0059   0.0049  -0.0048  -0.01   20.6
2020/11/05 05:15:28.200  -3961765.2146   3349009.2988   3698311.6656   1  23   0.0066   0.0070   0.0059  -0.0059   0.0049  -0.0048   0.19   19.5
2020/11/05 05:15:28.400  -3961765.2161   3349009.2995   3698311.6671   1  23   0.0067   0.0070   0.0059  -0.0059   0.0049  -0.0049   0.38   18.0
2020/11/05 05:15:28.600  -3961765.2152   3349009.2990   3698311.6657   1  23   0.0067   0.0070   0.0059  -0.0059   0.0049  -0.0049   0.58   21.1
2020/11/05 05:15:28.800  -3961765.2152   3349009.2990   3698311.6661   1  23   0.0067   0.0070   0.0060  -0.0059   0.0050  -0.0049   0.79   21.9
2020/11/05 05:15:29.000  -3961765.2143   3349009.3002   3698311.6678   1  23   0.0066   0.0070   0.0059  -0.0059   0.0049  -0.0048  -0.01   15.8
2020/11/05 05:15:29.200  -3961765.2143   3349009.3014   3698311.6661   1  23   0.0066   0.0070   0.0059  -0.0059   0.0049  -0.0048   0.19   18.7
2020/11/05 05:15:29.400  -3961765.2151   3349009.3020   3698311.6674   1  23   0.0067   0.0070   0.0059  -0.0059   0.0049  -0.0049   0.38   16.9
2020/11/05 05:15:29.600  -3961765.2154   3349009.3017   3698311.6680   1  23   0.0067   0.0070   0.0059  -0.0059   0.0049  -0.0049   0.58   18.4
2020/11/05 05:15:29.800  -3961765.2154   3349009.3015   3698311.6678   1  23   0.0067   0.0070   0.0060  -0.0059   0.0050  -0.0049   0.79   21.5
2020/11/05 05:15:30.000  -3961765.2155   3349009.3002   3698311.6674   1  23   0.0066   0.0070   0.0059  -0.0059   0.0049  -0.0048  -0.01   19.1
2020/11/05 05:15:30.200  -3961765.2158   3349009.3008   3698311.6680   1  23   0.0066   0.0070   0.0059  -0.0059   0.0049  -0.0048   0.19   16.7
2020/11/05 05:15:30.400  -3961765.2158   3349009.3005   3698311.6686   1  23   0.0067   0.0070   0.0059  -0.0059   0.0049  -0.0049   0.38   17.5
2020/11/05 05:15:30.600  -3961765.2174   3349009.3017   3698311.6692   1  23   0.0067   0.0070   0.0059  -0.0059   0.0049  -0.0049   0.58   15.5
2020/11/05 05:15:30.800  -3961765.2162   3349009.3008   3698311.6685   1  23   0.0067   0.0070   0.0060  -0.0059   0.0050  -0.0049   0.79   19.0
2020/11/05 05:15:31.000  -3961765.2155   3349009.3004   3698311.6672   1  23   0.0066   0.0070   0.0059  -0.0059   0.0049  -0.0048  -0.01   18.6
2020/11/05 05:15:31.200  -3961765.2166   3349009.3010   3698311.6662   1  23   0.0066   0.0070   0.0059  -0.0059   0.0049  -0.0048   0.19   17.6
2020/11/05 05:15:31.400  -3961765.2156   3349009.2998   3698311.6661   1  23   0.0067   0.0070   0.0059  -0.0059   0.0049  -0.0049   0.38   18.6
2020/11/05 05:15:31.600  -3961765.2163   3349009.2999   3698311.6673   1  23   0.0067   0.0070   0.0059  -0.0059   0.0049  -0.0049   0.58   19.7
2020/11/05 05:15:31.800  -3961765.2170   3349009.3003   3698311.6688   1  23   0.0067   0.0070   0.0060  -0.0059   0.0050  -0.0049   0.79   12.2
2020/11/05 05:15:32.000  -3961765.2154   3349009.3004   3698311.6654   1  23   0.0066   0.0070   0.0059  -0.0059   0.0049  -0.0048  -0.01   19.6
2020/11/05 05:15:32.200  -3961765.2139   3349009.2996   3698311.6658   1  23   0.0066   0.0070   0.0059  -0.0059   0.0049  -0.0048   0.19   19.1
2020/11/05 05:15:32.400  -3961765.2141   3349009.2992   3698311.6667   1  23   0.0067   0.0070   0.0059  -0.0059   0.0049  -0.0049   0.38   21.5
2020/11/05 05:15:32.600  -3961765.2163   3349009.3010   3698311.6673   1  23   0.0067   0.0070   0.0059  -0.0059   0.0049  -0.0049   0.58   15.9
2020/11/05 05:15:32.800  -3961765.2155   3349009.3003   3698311.6673   1  23   0.0067   0.0070   0.0060  -0.0059   0.0050  -0.0049   0.79   16.3
2020/11/05 05:15:33.000  -3961765.2169   3349009.3008   3698311.6676   1  23   0.0066   0.0070   0.0059  -0.0059   0.0049  -0.0048  -0.01   17.8
2020/11/05 05:15:33.200  -3961765.2163   3349009.3024   3698311.6669   1  23   0.0066   0.0070   0.0059  -0.0059   0.0049  -0.0048   0.19   19.6
2020/11/05 05:15:33.400  -3961765.2163   3349009.2999   3698311.6673   1  23   0.0067   0.0070   0.0059  -0.0059   0.0049  -0.0048   0.38   19.5
2020/11/05 05:15:33.600  -3961765.2162   3349009.3016   3698311.6669   1  23   0.0067   0.0070   0.0059  -0.0059   0.0049  -0.0049   0.58   23.1
2020/11/05 05:15:33.800  -3961765.2170   3349009.3016   3698311.6667   1  23   0.0067   0.0070   0.0059  -0.0059   0.0050  -0.0049   0.79   23.0
2020/11/05 05:15:34.000  -3961765.2144   3349009.2996   3698311.6645   1  23   0.0066   0.0070   0.0059  -0.0059   0.0049  -0.0048  -0.01   24.2
2020/11/05 05:15:34.200  -3961765.2134   3349009.2995   3698311.6655   1  23   0.0066   0.0070   0.0059  -0.0059   0.0049  -0.0048   0.19   20.2
2020/11/05 05:15:34.400  -3961765.2155   3349009.3008   3698311.6654   1  23   0.0067   0.0070   0.0059  -0.0059   0.0049  -0.0048   0.38   17.5
2020/11/05 05:15:34.600  -3961765.2151   3349009.3010   3698311.6659   1  23   0.0067   0.0070   0.0059  -0.0059   0.0049  -0.0049   0.58   17.3
2020/11/05 05:15:34.800  -3961765.2139   3349009.3002   3698311.6648   1  23   0.0067   0.0070   0.0059  -0.0059   0.0050  -0.0049   0.79   19.8
2020/11/05 05:15:35.000  -3961765.2163   3349009.3014   3698311.6656   1  23   0.0066   0.0070   0.0059  -0.0059   0.0049  -0.0048  -0.01   19.0
2020/11/05 05:15:35.200  -3961765.2166   3349009.3007   3698311.6664   1  23   0.0066   0.0070   0.0059  -0.0059   0.0049  -0.0048   0.19   22.6
2020/11/05 05:15:35.400  -3961765.2166   3349009.3009   3698311.6673   1  23   0.0067   0.0070   0.0059  -0.0059   0.0049  -0.0048   0.38   18.1
2020/11/05 05:15:35.600  -3961765.2160   3349009.3004   3698311.6669   1  23   0.0067   0.0070   0.0059  -0.0059   0.0049  -0.0049   0.58   15.4
2020/11/05 05:15:35.800  -3961765.2147   3349009.3005   3698311.6659   1  23   0.0067   0.0070   0.0059  -0.0059   0.0050  -0.0049   0.79   17.3
2020/11/05 05:15:36.000  -3961765.2155   3349009.3011   3698311.6671   1  23   0.0066   0.0070   0.0059  -0.0059   0.0049  -0.0048  -0.01   18.1
2020/11/05 05:15:36.200  -3961765.2142   3349009.3002   3698311.6663   1  23   0.0066   0.0070   0.0059  -0.0059   0.0049  -0.0048   0.19   19.1
2020/11/05 05:15:36.400  -3961765.2129   3349009.2992   3698311.6668   1  23   0.0067   0.0070   0.0059  -0.0059   0.0049  -0.0048   0.38   21.6
2020/11/05 05:15:36.600  -3961765.2127   3349009.2989   3698311.6661   1  23   0.0067   0.0070   0.0059  -0.0059   0.0049  -0.0049   0.58   20.9
2020/11/05 05:15:36.800  -3961765.2121   3349009.2975   3698311.6659   1  23   0.0067   0.0070   0.0059  -0.0059   0.0050  -0.0049   0.79   14.5
2020/11/05 05:15:37.000  -3961765.2172   3349009.3020   3698311.6691   1  23   0.0066   0.0070   0.0059  -0.0059   0.0049  -0.0048  -0.01   22.3
2020/11/05 05:15:37.200  -3961765.2143   3349009.3000   3698311.6665   1  23   0.0066   0.0070   0.0059  -0.0059   0.0049  -0.0048   0.19   23.9
2020/11/05 05:15:37.400  -3961765.2157   3349009.3013   3698311.6682   1  23   0.0067   0.0070   0.0059  -0.0059   0.0049  -0.0048   0.38   18.9
2020/11/05 05:15:37.600  -3961765.2155   3349009.2995   3698311.6665   1  23   0.0067   0.0070   0.0059  -0.0059   0.0049  -0.0049   0.58   16.0
2020/11/05 05:15:37.800  -3961765.2140   3349009.2998   3698311.6676   1  23   0.0067   0.0070   0.0059  -0.0059   0.0050  -0.0049   0.79   17.9
2020/11/05 05:15:38.000  -3961765.2172   3349009.3014   3698311.6668   1  23   0.0066   0.0070   0.0059  -0.0059   0.0049  -0.0048  -0.01   24.9
2020/11/05 05:15:38.200  -3961765.2156   3349009.2998   3698311.6672   1  23   0.0066   0.0070   0.0059  -0.0059   0.0049  -0.0048   0.19   23.0
2020/11/05 05:15:38.400  -3961765.2167   3349009.3007   3698311.6674   1  23   0.0067   0.0070   0.0059  -0.0059   0.0049  -0.0048   0.38   22.3
2020/11/05 05:15:38.600  -3961765.2162   3349009.3004   3698311.6676   1  23   0.0067   0.0070   0.0059  -0.0059   0.0049  -0.0049   0.58   20.7
2020/11/05 05:15:38.800  -3961765.2161   3349009.3000   3698311.6668   1  23   0.0067   0.0070   0.0059  -0.0059   0.0050  -0.0049   0.79   19.7
2020/11/05 05:15:39.000  -3961765.2164   3349009.3013   3698311.6671   1  23   0.0066   0.0070   0.0059  -0.0059   0.0049  -0.0048  -0.01   25.7
2020/11/05 05:15:39.200  -3961765.2165   3349009.3014   3698311.6673   1  23   0.0066   0.0070   0.0059  -0.0059   0.0049  -0.0048   0.19   24.9
2020/11/05 05:15:39.400  -3961765.2166   3349009.3028   3698311.6670   1  23   0.0067   0.0070   0.0059  -0.0059   0.0049  -0.0048   0.38   20.4
2020/11/05 05:15:39.600  -3961765.2167   3349009.3019   3698311.6681   1  23   0.0067   0.0070   0.0059  -0.0059   0.0049  -0.0049   0.58   28.9
2020/11/05 05:15:39.800  -3961765.2171   3349009.3024   3698311.6678   1  23   0.0067   0.0070   0.0059  -0.0059   0.0050  -0.0049   0.79   25.1
2020/11/05 05:15:40.000  -3961765.2168   3349009.3007   3698311.6683   1  23   0.0066   0.0070   0.0059  -0.0059   0.0049  -0.0048  -0.01   17.9
2020/11/05 05:15:40.200  -3961765.2159   3349009.2994   3698311.6683   1  23   0.0066   0.0070   0.0059  -0.0059   0.0049  -0.0048   0.19   16.3
2020/11/05 05:15:40.400  -3961765.2156   3349009.2990   3698311.6680   1  23   0.0067   0.0070   0.0059  -0.0059   0.0049  -0.0048   0.38   20.9
2020/11/05 05:15:40.600  -3961765.2141   3349009.2977   3698311.6665   1  23   0.0067   0.0070   0.0059  -0.0059   0.0049  -0.0049   0.58   14.2
2020/11/05 05:15:40.800  -3961765.2144   3349009.2978   3698311.6665   1  23   0.0067   0.0070   0.0059  -0.0059   0.0050  -0.0049   0.79   21.1
2020/11/05 05:15:41.000  -3961765.2157   3349009.3007   3698311.6677   1  23   0.0066   0.0070   0.0059  -0.0059   0.0049  -0.0048  -0.01   21.0
2020/11/05 05:15:41.200  -3961765.2157   3349009.2992   3698311.6674   1  23   0.0066   0.0070   0.0059  -0.0059   0.0049  -0.0048   0.19   15.1
2020/11/05 05:15:41.400  -3961765.2169   3349009.3006   3698311.6683   1  23   0.0066   0.0070   0.0059  -0.0059   0.0049  -0.0048   0.38   21.2
2020/11/05 05:15:41.600  -3961765.2162   3349009.3002   3698311.6686   1  23   0.0067   0.0070   0.0059  -0.0059   0.0049  -0.0049   0.58   20.5
2020/11/05 05:15:41.800  -3961765.2169   3349009.3003   3698311.6691   1  23   0.0067   0.0070   0.0059  -0.0059   0.0050  -0.0049   0.79   16.2
2020/11/05 05:15:42.000  -3961765.2164   3349009.3014   3698311.6670   1  23   0.0066   0.0070   0.0059  -0.0059   0.0049  -0.0048  -0.01   19.3
2020/11/05 05:15:42.200  -3961765.2166   3349009.3012   3698311.6664   1  23   0.0066   0.0070   0.0059  -0.0059   0.0049  -0.0048   0.19   17.1
2020/11/05 05:15:42.400  -3961765.2183   3349009.3028   3698311.6671   1  23   0.0066   0.0070   0.0059  -0.0059   0.0049  -0.0048   0.38   18.4
2020/11/05 05:15:42.600  -3961765.2184   3349009.3042   3698311.6686   1  23   0.0067   0.0070   0.0059  -0.0059   0.0049  -0.0049   0.58   19.3
2020/11/05 05:15:42.800  -3961765.2182   3349009.3046   3698311.6669   1  23   0.0067   0.0070   0.0059  -0.0059   0.0050  -0.0049   0.79   18.6
2020/11/05 05:15:43.000  -3961765.2155   3349009.3011   3698311.6678   1  23   0.0066   0.0070   0.0059  -0.0059   0.0049  -0.0048  -0.01   16.1
2020/11/05 05:15:43.200  -3961765.2160   3349009.3021   3698311.6680   1  23   0.0066   0.0070   0.0059  -0.0059   0.0049  -0.0048   0.19   18.0
2020/11/05 05:15:43.400  -3961765.2159   3349009.3011   3698311.6674   1  23   0.0066   0.0070   0.0059  -0.0059   0.0049  -0.0048   0.38   17.8
2020/11/05 05:15:43.600  -3961765.2147   3349009.3005   3698311.6659   1  23   0.0067   0.0070   0.0059  -0.0059   0.0049  -0.0049   0.58   18.8
2020/11/05 05:15:43.800  -3961765.2161   3349009.3011   3698311.6668   1  23   0.0067   0.0070   0.0059  -0.0059   0.0050  -0.0049   0.79   21.5
2020/11/05 05:15:44.000  -3961765.2156   3349009.3010   3698311.6661   1  23   0.0066   0.0070   0.0059  -0.0059   0.0049  -0.0048  -0.01   16.8
2020/11/05 05:15:44.200  -3961765.2145   3349009.2993   3698311.6663   1  23   0.0066   0.0070   0.0059  -0.0059   0.0049  -0.0048   0.19   16.4
2020/11/05 05:15:44.400  -3961765.2174   3349009.3037   3698311.6674   1  23   0.0066   0.0070   0.0059  -0.0059   0.0049  -0.0048   0.38   17.3
2020/11/05 05:15:44.600  -3961765.2176   3349009.3039   3698311.6675   1  23   0.0067   0.0070   0.0059  -0.0059   0.0049  -0.0049   0.58   17.6
2020/11/05 05:15:44.800  -3961765.2185   3349009.3045   3698311.6670   1  23   0.0067   0.0070   0.0059  -0.0059   0.0050  -0.0049   0.79   16.2
2020/11/05 05:15:45.000  -3961765.2164   3349009.3020   3698311.6672   1  23   0.0066   0.0070   0.0059  -0.0059   0.0049  -0.0048  -0.01   17.2
2020/11/05 05:15:45.200  -3961765.2153   3349009.3008   3698311.6665   1  23   0.0066   0.0070   0.0059  -0.0059   0.0049  -0.0048   0.19   17.2
2020/11/05 05:15:45.400  -3961765.2162   3349009.3027   3698311.6664   1  23   0.0066   0.0070   0.0059  -0.0059   0.0049  -0.0048   0.38   14.0
2020/11/05 05:15:45.600  -3961765.2181   3349009.3039   3698311.6666   1  23   0.0067   0.0070   0.0059  -0.0059   0.0049  -0.0049   0.58   16.7
2020/11/05 05:15:45.800  -3961765.2168   3349009.3031   3698311.6661   1  23   0.0067   0.0070   0.0059  -0.0059   0.0050  -0.0049   0.79   18.2
2020/11/05 05:15:46.000  -3961765.2155   3349009.3005   3698311.6662   1  23   0.0066   0.0070   0.0059  -0.0059   0.0049  -0.0048  -0.01   17.8
2020/11/05 05:15:46.200  -3961765.2157   3349009.3014   3698311.6663   1  23   0.0066   0.0070   0.0059  -0.0059   0.0049  -0.0048   0.19   15.7
2020/11/05 05:15:46.400  -3961765.2153   3349009.3005   3698311.6672   1  23   0.0066   0.0070   0.0059  -0.0059   0.0049  -0.0048   0.38   16.1
2020/11/05 05:15:46.600  -3961765.2159   3349009.3013   3698311.6658   1  23   0.0067   0.0070   0.0059  -0.0059   0.0049  -0.0049   0.58   15.2
2020/11/05 05:15:46.800  -3961765.2172   3349009.3016   3698311.6663   1  23   0.0067   0.0070   0.0059  -0.0059   0.0050  -0.0049   0.79   16.3
2020/11/05 05:15:47.000  -3961765.2148   3349009.2998   3698311.6674   1  23   0.0066   0.0070   0.0059  -0.0059   0.0049  -0.0048  -0.01   15.7
2020/11/05 05:15:47.200  -3961765.2146   3349009.2998   3698311.6670   1  23   0.0066   0.0070   0.0059  -0.0059   0.0049  -0.0048   0.19   17.3
2020/11/05 05:15:47.400  -3961765.2143   3349009.2996   3698311.6668   1  23   0.0066   0.0070   0.0059  -0.0059   0.0049  -0.0048   0.38   19.6
2020/11/05 05:15:47.600  -3961765.2127   3349009.2979   3698311.6664   1  23   0.0067   0.0070   0.0059  -0.0059   0.0049  -0.0049   0.58   16.9
2020/11/05 05:15:47.800  -3961765.2141   3349009.2999   3698311.6680   1  23   0.0067   0.0070   0.0059  -0.0059   0.0050  -0.0049   0.79   16.5
2020/11/05 05:15:48.000  -3961765.2141   3349009.2987   3698311.6675   1  23   0.0066   0.0070   0.0059  -0.0059   0.0049  -0.0048  -0.01   21.5
2020/11/05 05:15:48.200  -3961765.2153   3349009.3007   3698311.6676   1  23   0.0066   0.0070   0.0059  -0.0059   0.0049  -0.0048   0.19   15.4
2020/11/05 05:15:48.400  -3961765.2150   3349009.2989   3698311.6679   1  23   0.0066   0.0070   0.0059  -0.0059   0.0049  -0.0048   0.38   16.7
2020/11/05 05:15:48.600  -3961765.2151   3349009.2989   3698311.6679   1  23   0.0067   0.0070   0.0059  -0.0059   0.0049  -0.0049   0.58   17.4
2020/11/05 05:15:48.800  -3961765.2137   3349009.2978   3698311.6664   1  23   0.0067   0.0070   0.0059  -0.0059   0.0050  -0.0049   0.79   15.8
2020/11/05 05:15:49.000  -3961765.2158   3349009.3000   3698311.6661   1  23   0.0066   0.0070   0.0059  -0.0059   0.0049  -0.0048  -0.01   17.3
2020/11/05 05:15:49.200  -3961765.2153   3349009.2996   3698311.6672   1  23   0.0066   0.0070   0.0059  -0.0059   0.0049  -0.0048   0.19   15.4
2020/11/05 05:15:49.400  -3961765.2155   3349009.2990   3698311.6670   1  23   0.0066   0.0070   0.0059  -0.0059   0.0049  -0.0048   0.38   15.4
2020/11/05 05:15:49.600  -3961765.2152   3349009.3009   3698311.6672   1  23   0.0067   0.0070   0.0059  -0.0059   0.0049  -0.0049   0.58   14.4
2020/11/05 05:15:49.800  -3961765.2157   3349009.3011   3698311.6679   1  23   0.0067   0.0070   0.0059  -0.0059   0.0050  -0.0049   0.79   15.3
2020/11/05 05:15:50.000  -3961765.2153   3349009.3006   3698311.6666   1  23   0.0066   0.0070   0.0059  -0.0059   0.0049  -0.0048  -0.01   17.5
2020/11/05 05:15:50.200  -3961765.2156   3349009.3015   3698311.6676   1  23   0.0066   0.0070   0.0059  -0.0059   0.0049  -0.0048   0.19   15.8
2020/11/05 05:15:50.400  -3961765.2157   3349009.3007   3698311.6661   1  23   0.0066   0.0070   0.0059  -0.0059   0.0049  -0.0048   0.38   15.7
2020/11/05 05:15:50.600  -3961765.2155   3349009.3001   3698311.6666   1  23   0.0067   0.0070   0.0059  -0.0059   0.0049  -0.0049   0.58   15.4
2020/11/05 05:15:50.800  -3961765.2164   3349009.3010   3698311.6680   1  23   0.0067   0.0070   0.0059  -0.0059   0.0050  -0.0049   0.79   15.6
2020/11/05 05:15:51.000  -3961765.2149   3349009.2991   3698311.6664   1  23   0.0066   0.0070   0.0059  -0.0059   0.0049  -0.0048  -0.01   16.4
2020/11/05 05:15:51.200  -3961765.2151   3349009.3006   3698311.6665   1  23   0.0066   0.0070   0.0059  -0.0059   0.0049  -0.0048   0.19   16.7
2020/11/05 05:15:51.400  -3961765.2173   3349009.3025   3698311.6673   1  23   0.0066   0.0070   0.0059  -0.0059   0.0049  -0.0048   0.38   17.3
2020/11/05 05:15:51.600  -3961765.2171   3349009.3025   3698311.6681   1  23   0.0067   0.0070   0.0059  -0.0059   0.0049  -0.0049   0.58   17.7
2020/11/05 05:15:51.800  -3961765.2169   3349009.3031   3698311.6670   1  23   0.0067   0.0070   0.0059  -0.0059   0.0050  -0.0049   0.79   16.4
2020/11/05 05:15:52.000  -3961765.2150   3349009.3008   3698311.6659   1  23   0.0066   0.0070   0.0059  -0.0059   0.0049  -0.0048  -0.01   17.3
2020/11/05 05:15:52.200  -3961765.2153   3349009.3012   3698311.6662   1  23   0.0066   0.0070   0.0059  -0.0059   0.0049  -0.0048   0.19   18.4
2020/11/05 05:15:52.400  -3961765.2164   3349009.3013   3698311.6674   1  23   0.0066   0.0070   0.0059  -0.0059   0.0049  -0.0048   0.38   13.6
2020/11/05 05:15:52.600  -3961765.2158   3349009.3015   3698311.6668   1  23   0.0067   0.0070   0.0059  -0.0059   0.0049  -0.0049   0.58   15.9
2020/11/05 05:15:52.800  -3961765.2162   3349009.3016   3698311.6662   1  23   0.0067   0.0070   0.0059  -0.0059   0.0050  -0.0049   0.79   15.6
2020/11/05 05:15:53.000  -3961765.2172   3349009.3024   3698311.6698   1  23   0.0066   0.0070   0.0059  -0.0059   0.0049  -0.0048  -0.01   13.7
2020/11/05 05:15:53.200  -3961765.2157   3349009.3010   3698311.6680   1  23   0.0066   0.0070   0.0059  -0.0059   0.0049  -0.0048   0.19   15.6
2020/11/05 05:15:53.400  -3961765.2184   3349009.3028   3698311.6688   1  23   0.0066   0.0070   0.0059  -0.0059   0.0049  -0.0048   0.38   14.1
2020/11/05 05:15:53.600  -3961765.2158   3349009.3006   3698311.6689   1  23   0.0067   0.0070   0.0059  -0.0059   0.0049  -0.0049   0.58   15.7
2020/11/05 05:15:53.800  -3961765.2160   3349009.3017   3698311.6705   1  23   0.0067   0.0070   0.0059  -0.0059   0.0050  -0.0049   0.79   11.5
2020/11/05 05:15:54.000  -3961765.2161   3349009.3009   3698311.6655   1  23   0.0066   0.0070   0.0059  -0.0059   0.0049  -0.0048  -0.01   18.0
2020/11/05 05:15:54.200  -3961765.2170   3349009.3014   3698311.6665   1  23   0.0066   0.0070   0.0059  -0.0059   0.0049  -0.0048   0.19   17.9
2020/11/05 05:15:54.400  -3961765.2167   3349009.3025   3698311.6671   1  23   0.0066   0.0070   0.0059  -0.0059   0.0049  -0.0048   0.38   18.5
2020/11/05 05:15:54.600  -3961765.2157   3349009.3017   3698311.6656   1  23   0.0067   0.0070   0.0059  -0.0059   0.0049  -0.0049   0.58   16.1
2020/11/05 05:15:54.800  -3961765.2174   3349009.3019   3698311.6675   1  23   0.0067   0.0070   0.0059  -0.0059   0.0050  -0.0049   0.79   17.3
2020/11/05 05:15:55.000  -3961765.2146   3349009.3009   3698311.6662   1  23   0.0066   0.0070   0.0059  -0.0059   0.0049  -0.0048  -0.01   16.6
2020/11/05 05:15:55.200  -3961765.2159   3349009.3023   3698311.6668   1  23   0.0066   0.0070   0.0059  -0.0059   0.0049  -0.0048   0.19   15.2
2020/11/05 05:15:55.400  -3961765.2147   3349009.3010   3698311.6675   1  23   0.0066   0.0070   0.0059  -0.0059   0.0049  -0.0048   0.38   12.8
2020/11/05 05:15:55.600  -3961765.2145   3349009.3009   3698311.6668   1  23   0.0067   0.0070   0.0059  -0.0059   0.0049  -0.0049   0.58   15.7
2020/11/05 05:15:55.800  -3961765.2160   3349009.3021   3698311.6680   1  23   0.0067   0.0070   0.0059  -0.0059   0.0050  -0.0049   0.79   17.0
2020/11/05 05:15:56.000  -3961765.2155   3349009.3003   3698311.6672   1  23   0.0066   0.0070   0.0059  -0.0059   0.0049  -0.0048  -0.01   15.1
2020/11/05 05:15:56.200  -3961765.2152   3349009.3005   3698311.6663   1  23   0.0066   0.0070   0.0059  -0.0059   0.0049  -0.0048   0.19   14.4
2020/11/05 05:15:56.400  -3961765.2159   3349009.3006   3698311.6682   1  23   0.0066   0.0070   0.0059  -0.0059   0.0049  -0.0048   0.38   15.4
2020/11/05 05:15:56.600  -3961765.2144   3349009.3002   3698311.6672   1  23   0.0067   0.0070   0.0059  -0.0059   0.0049  -0.0048   0.58   15.8
2020/11/05 05:15:56.800  -3961765.2134   3349009.2986   3698311.6653   1  23   0.0067   0.0070   0.0059  -0.0059   0.0049  -0.0049   0.79   15.2
2020/11/05 05:15:57.000  -3961765.2167   3349009.3016   3698311.6665   1  23   0.0066   0.0070   0.0059  -0.0059   0.0049  -0.0048  -0.01   13.6
2020/11/05 05:15:57.200  -3961765.2164   3349009.3010   3698311.6659   1  23   0.0066   0.0070   0.0059  -0.0059   0.0049  -0.0048   0.19   15.0
2020/11/05 05:15:57.400  -3961765.2160   3349009.3014   3698311.6680   1  23   0.0066   0.0070   0.0059  -0.0059   0.0049  -0.0048   0.38   14.8
2020/11/05 05:15:57.600  -3961765.2165   3349009.3025   3698311.6670   1  23   0.0067   0.0070   0.0059  -0.0059   0.0049  -0.0048   0.58   14.8
2020/11/05 05:15:57.800  -3961765.2161   3349009.3018   3698311.6677   1  23   0.0067   0.0070   0.0059  -0.0059   0.0049  -0.0049   0.79   13.4
2020/11/05 05:15:58.000  -3961765.2153   3349009.3006   3698311.6680   1  23   0.0066   0.0070   0.0059  -0.0059   0.0049  -0.0048  -0.01   14.1
2020/11/05 05:15:58.200  -3961765.2155   3349009.3008   3698311.6667   1  23   0.0066   0.0070   0.0059  -0.0059   0.0049  -0.0048   0.19   13.9
2020/11/05 05:15:58.400  -3961765.2159   3349009.3014   3698311.6680   1  23   0.0066   0.0070   0.0059  -0.0059   0.0049  -0.0048   0.38   18.5
2020/11/05 05:15:58.600  -3961765.2162   3349009.3014   3698311.6677   1  23   0.0067   0.0070   0.0059  -0.0059   0.0049  -0.0048   0.58   13.0
2020/11/05 05:15:58.800  -3961765.2176   3349009.3027   3698311.6681   1  23   0.0067   0.0070   0.0059  -0.0059   0.0049  -0.0049   0.79   16.8
2020/11/05 05:15:59.000  -3961765.2169   3349009.3022   3698311.6690   1  23   0.0066   0.0070   0.0059  -0.0059   0.0049  -0.0048  -0.01   16.1
2020/11/05 05:15:59.200  -3961765.2186   3349009.3045   3698311.6698   1  23   0.0066   0.0070   0.0059  -0.0059   0.0049  -0.0048   0.19   13.0
2020/11/05 05:15:59.400  -3961765.2179   3349009.3029   3698311.6694   1  23   0.0066   0.0070   0.0059  -0.0059   0.0049  -0.0048   0.38   16.7
2020/11/05 05:15:59.600  -3961765.2186   3349009.3033   3698311.6691   1  23   0.0067   0.0070   0.0059  -0.0059   0.0049  -0.0048   0.58   17.1
2020/11/05 05:15:59.800  -3961765.2186   3349009.3044   3698311.6703   1  23   0.0067   0.0070   0.0059  -0.0059   0.0049  -0.0049   0.79   16.4
2020/11/05 05:16:00.000  -3961765.2154   3349009.2999   3698311.6670   1  23   0.0066   0.0070   0.0059  -0.0059   0.0049  -0.0048  -0.01   15.5
2020/11/05 05:16:00.200  -3961765.2157   3349009.3016   3698311.6671   1  23   0.0066   0.0070   0.0059  -0.0059   0.0049  -0.0048   0.19   15.9
2020/11/05 05:16:00.400  -3961765.2161   3349009.3021   3698311.6677   1  23   0.0066   0.0070   0.0059  -0.0059   0.0049  -0.0048   0.38   14.8
2020/11/05 05:16:00.600  -3961765.2168   3349009.3020   3698311.6680   1  23   0.0067   0.0070   0.0059  -0.0059   0.0049  -0.0048   0.58   16.7
2020/11/05 05:16:00.800  -3961765.2165   3349009.3024   3698311.6696   1  23   0.0067   0.0070   0.0059  -0.0059   0.0049  -0.0049   0.79   14.5
2020/11/05 05:16:01.000  -3961765.2175   3349009.3011   3698311.6678   1  23   0.0066   0.0070   0.0059  -0.0059   0.0049  -0.0048  -0.01   13.9
2020/11/05 05:16:01.200  -3961765.2167   3349009.3007   3698311.6663   1  23   0.0066   0.0070   0.0059  -0.0059   0.0049  -0.0048   0.19   13.6
2020/11/05 05:16:01.400  -3961765.2177   3349009.3005   3698311.6674   1  23   0.0066   0.0070   0.0059  -0.0059   0.0049  -0.0048   0.38   16.0
2020/11/05 05:16:01.600  -3961765.2169   3349009.2999   3698311.6667   1  23   0.0067   0.0070   0.0059  -0.0059   0.0049  -0.0048   0.58   15.2
2020/11/05 05:16:01.800  -3961765.2162   3349009.2996   3698311.6658   1  23   0.0067   0.0070   0.0059  -0.0059   0.0049  -0.0049   0.79   16.7
2020/11/05 05:16:02.000  -3961765.2159   3349009.3008   3698311.6647   1  23   0.0066   0.0070   0.0059  -0.0059   0.0049  -0.0048  -0.01   13.7
2020/11/05 05:16:02.200  -3961765.2168   3349009.3013   3698311.6677   1  23   0.0066   0.0070   0.0059  -0.0059   0.0049  -0.0048   0.19   15.0
2020/11/05 05:16:02.400  -3961765.2164   3349009.3023   3698311.6690   1  23   0.0066   0.0070   0.0059  -0.0059   0.0049  -0.0048   0.38   13.3
2020/11/05 05:16:02.600  -3961765.2167   3349009.3030   3698311.6672   1  23   0.0067   0.0070   0.0059  -0.0059   0.0049  -0.0048   0.58   13.5
2020/11/05 05:16:02.800  -3961765.2166   3349009.3022   3698311.6684   1  23   0.0067   0.0070   0.0059  -0.0059   0.0049  -0.0049   0.79   14.6
2020/11/05 05:16:03.000  -3961765.2167   3349009.3004   3698311.6678   1  23   0.0066   0.0070   0.0059  -0.0059   0.0049  -0.0048  -0.01   15.6
2020/11/05 05:16:03.200  -3961765.2163   3349009.3003   3698311.6688   1  23   0.0066   0.0070   0.0059  -0.0059   0.0049  -0.0048   0.19   15.7
2020/11/05 05:16:03.400  -3961765.2178   3349009.3031   3698311.6662   1  23   0.0066   0.0070   0.0059  -0.0059   0.0049  -0.0048   0.38   13.5
2020/11/05 05:16:03.600  -3961765.2162   3349009.3014   3698311.6677   1  23   0.0067   0.0070   0.0059  -0.0059   0.0049  -0.0048   0.58   14.5
2020/11/05 05:16:03.800  -3961765.2181   3349009.3025   3698311.6680   1  23   0.0067   0.0070   0.0059  -0.0059   0.0049  -0.0049   0.79   14.7
2020/11/05 05:16:04.000  -3961765.2164   3349009.3006   3698311.6664   1  23   0.0066   0.0070   0.0059  -0.0059   0.0049  -0.0048  -0.01   10.8
2020/11/05 05:16:04.200  -3961765.2159   3349009.3004   3698311.6668   1  23   0.0066   0.0070   0.0059  -0.0059   0.0049  -0.0048   0.19   12.2
2020/11/05 05:16:04.400  -3961765.2168   3349009.3013   3698311.6669   1  23   0.0066   0.0070   0.0059  -0.0059   0.0049  -0.0048   0.38   11.2
2020/11/05 05:16:04.600  -3961765.2160   3349009.3002   3698311.6652   1  23   0.0067   0.0070   0.0059  -0.0059   0.0049  -0.0048   0.58   11.2
2020/11/05 05:16:04.800  -3961765.2171   3349009.3024   3698311.6665   1  23   0.0067   0.0070   0.0059  -0.0059   0.0049  -0.0049   0.79   12.5
2020/11/05 05:16:05.000  -3961765.2165   3349009.3019   3698311.6666   1  23   0.0066   0.0070   0.0059  -0.0059   0.0049  -0.0048  -0.01   11.3
2020/11/05 05:16:05.200  -3961765.2141   3349009.2999   3698311.6656   1  23   0.0066   0.0070   0.0059  -0.0059   0.0049  -0.0048   0.19   13.1
2020/11/05 05:16:05.400  -3961765.2170   3349009.3022   3698311.6682   1  23   0.0066   0.0070   0.0059  -0.0059   0.0049  -0.0048   0.38   12.1
2020/11/05 05:16:05.600  -3961765.2158   3349009.3024   3698311.6661   1  23   0.0067   0.0070   0.0059  -0.0059   0.0049  -0.0048   0.58   12.1
2020/11/05 05:16:05.800  -3961765.2180   3349009.3045   3698311.6682   1  23   0.0067   0.0070   0.0059  -0.0059   0.0049  -0.0049   0.79   12.4
2020/11/05 05:16:06.000  -3961765.2154   3349009.2996   3698311.6663   1  23   0.0066   0.0070   0.0059  -0.0059   0.0049  -0.0048  -0.01   12.5
2020/11/05 05:16:06.200  -3961765.2164   3349009.3005   3698311.6661   1  23   0.0066   0.0070   0.0059  -0.0059   0.0049  -0.0048   0.19   13.1
2020/11/05 05:16:06.400  -3961765.2160   3349009.3008   3698311.6654   1  23   0.0066   0.0070   0.0059  -0.0059   0.0049  -0.0048   0.38   12.6
2020/11/05 05:16:06.600  -3961765.2161   3349009.3018   3698311.6666   1  23   0.0067   0.0070   0.0059  -0.0059   0.0049  -0.0048   0.58   12.0
2020/11/05 05:16:06.800  -3961765.2185   3349009.3030   3698311.6663   1  23   0.0067   0.0070   0.0059  -0.0059   0.0049  -0.0049   0.79   11.3
2020/11/05 05:16:07.000  -3961765.2162   3349009.3001   3698311.6647   1  23   0.0066   0.0070   0.0059  -0.0059   0.0049  -0.0048  -0.01   13.4
2020/11/05 05:16:07.200  -3961765.2185   3349009.3020   3698311.6678   1  23   0.0066   0.0070   0.0059  -0.0059   0.0049  -0.0048   0.19   13.4
2020/11/05 05:16:07.400  -3961765.2177   3349009.3029   3698311.6664   1  23   0.0066   0.0070   0.0059  -0.0059   0.0049  -0.0048   0.38   15.2
2020/11/05 05:16:07.600  -3961765.2164   3349009.3007   3698311.6662   1  23   0.0067   0.0070   0.0059  -0.0059   0.0049  -0.0048   0.58   13.6
2020/11/05 05:16:07.800  -3961765.2181   3349009.3022   3698311.6662   1  23   0.0067   0.0070   0.0059  -0.0059   0.0049  -0.0049   0.79   14.5
2020/11/05 05:16:08.000  -3961765.2166   3349009.3015   3698311.6657   1  23   0.0066   0.0070   0.0059  -0.0059   0.0049  -0.0048  -0.01   11.4
2020/11/05 05:16:08.200  -3961765.2155   3349009.3012   3698311.6654   1  23   0.0066   0.0070   0.0059  -0.0059   0.0049  -0.0048   0.19   10.4
2020/11/05 05:16:08.400  -3961765.2176   3349009.3029   3698311.6663   1  23   0.0066   0.0070   0.0059  -0.0059   0.0049  -0.0048   0.38   12.7
2020/11/05 05:16:08.600  -3961765.2184   3349009.3042   3698311.6662   1  23   0.0067   0.0070   0.0059  -0.0059   0.0049  -0.0048   0.58   12.7
2020/11/05 05:16:08.800  -3961765.2169   3349009.3032   3698311.6664   1  23   0.0067   0.0070   0.0059  -0.0059   0.0049  -0.0049   0.79   11.2
2020/11/05 05:16:09.000  -3961765.2156   3349009.3013   3698311.6666   1  23   0.0066   0.0070   0.0059  -0.0059   0.0049  -0.0048  -0.01   12.0
2020/11/05 05:16:09.200  -3961765.2170   3349009.3023   3698311.6666   1  23   0.0066   0.0070   0.0059  -0.0059   0.0049  -0.0048   0.19   13.8
2020/11/05 05:16:09.400  -3961765.2166   3349009.3022   3698311.6662   1  23   0.0066   0.0070   0.0059  -0.0059   0.0049  -0.0048   0.38   13.4
2020/11/05 05:16:09.600  -3961765.2178   3349009.3032   3698311.6680   1  23   0.0067   0.0070   0.0059  -0.0059   0.0049  -0.0048   0.58   14.6
2020/11/05 05:16:09.800  -3961765.2173   3349009.3033   3698311.6686   1  23   0.0067   0.0070   0.0059  -0.0059   0.0049  -0.0049   0.79   13.2
2020/11/05 05:16:10.000  -3961765.2166   3349009.3023   3698311.6676   1  23   0.0066   0.0070   0.0059  -0.0059   0.0049  -0.0048  -0.01   12.4
2020/11/05 05:16:10.200  -3961765.2157   3349009.3017   3698311.6670   1  23   0.0066   0.0070   0.0059  -0.0059   0.0049  -0.0048   0.19   14.4
2020/11/05 05:16:10.400  -3961765.2158   3349009.3030   3698311.6673   1  23   0.0066   0.0070   0.0059  -0.0059   0.0049  -0.0048   0.38   13.9
2020/11/05 05:16:10.600  -3961765.2183   3349009.3040   3698311.6676   1  23   0.0067   0.0070   0.0059  -0.0059   0.0049  -0.0048   0.58   12.8
2020/11/05 05:16:10.800  -3961765.2167   3349009.3022   3698311.6669   1  23   0.0067   0.0070   0.0059  -0.0059   0.0049  -0.0049   0.79   13.2
2020/11/05 05:16:11.000  -3961765.2164   3349009.3007   3698311.6655   1  23   0.0066   0.0070   0.0059  -0.0059   0.0049  -0.0048  -0.01   14.5
2020/11/05 05:16:11.200  -3961765.2158   3349009.3007   3698311.6661   1  23   0.0066   0.0070   0.0059  -0.0059   0.0049  -0.0048   0.19   14.6
2020/11/05 05:16:11.400  -3961765.2154   3349009.3000   3698311.6662   1  23   0.0066   0.0070   0.0059  -0.0059   0.0049  -0.0048   0.38   13.5
2020/11/05 05:16:11.600  -3961765.2136   3349009.2992   3698311.6662   1  23   0.0067   0.0070   0.0059  -0.0059   0.0049  -0.0048   0.58   15.4
2020/11/05 05:16:11.800  -3961765.2141   3349009.2997   3698311.6653   1  23   0.0067   0.0070   0.0059  -0.0059   0.0049  -0.0049   0.79   16.8
2020/11/05 05:16:12.000  -3961765.2143   3349009.2996   3698311.6662   1  23   0.0066   0.0070   0.0059  -0.0059   0.0049  -0.0048  -0.01   16.1
2020/11/05 05:16:12.200  -3961765.2148   3349009.3016   3698311.6662   1  23   0.0066   0.0070   0.0059  -0.0059   0.0049  -0.0048   0.19   12.6
2020/11/05 05:16:12.400  -3961765.2161   3349009.3025   3698311.6664   1  23   0.0066   0.0070   0.0059  -0.0059   0.0049  -0.0048   0.38   12.8
2020/11/05 05:16:12.600  -3961765.2151   3349009.3021   3698311.6669   1  23   0.0067   0.0070   0.0059  -0.0059   0.0049  -0.0048   0.58   15.0
2020/11/05 05:16:12.800  -3961765.2148   3349009.3014   3698311.6669   1  23   0.0067   0.0070   0.0059  -0.0059   0.0049  -0.0049   0.79   13.6
2020/11/05 05:16:13.000  -3961765.2147   3349009.3002   3698311.6647   1  23   0.0066   0.0070   0.0059  -0.0059   0.0049  -0.0048  -0.01   15.5
2020/11/05 05:16:13.200  -3961765.2155   3349009.3024   3698311.6658   1  23   0.0066   0.0070   0.0059  -0.0059   0.0049  -0.0048   0.19   12.8
2020/11/05 05:16:13.400  -3961765.2147   3349009.3004   3698311.6655   1  23   0.0066   0.0070   0.0059  -0.0059   0.0049  -0.0048   0.38   15.0
2020/11/05 05:16:13.600  -3961765.2147   3349009.3017   3698311.6648   1  23   0.0067   0.0070   0.0059  -0.0059   0.0049  -0.0048   0.58   15.4
2020/11/05 05:16:13.800  -3961765.2160   3349009.3027   3698311.6668   1  23   0.0067   0.0070   0.0059  -0.0059   0.0049  -0.0049   0.79   13.9
2020/11/05 05:16:14.000  -3961765.2168   3349009.3010   3698311.6660   1  23   0.0066   0.0070   0.0059  -0.0059   0.0049  -0.0048  -0.01   13.7
2020/11/05 05:16:14.200  -3961765.2166   3349009.3022   3698311.6658   1  23   0.0066   0.0070   0.0059  -0.0059   0.0049  -0.0048   0.19   14.3
2020/11/05 05:16:14.400  -3961765.2157   3349009.3012   3698311.6656   1  23   0.0066   0.0070   0.0059  -0.0059   0.0049  -0.0048   0.38   12.0
2020/11/05 05:16:14.600  -3961765.2176   3349009.3027   3698311.6656   1  23   0.0067   0.0070   0.0059  -0.0059   0.0049  -0.0048   0.58   12.4
2020/11/05 05:16:14.800  -3961765.2185   3349009.3043   3698311.6675   1  23   0.0067   0.0070   0.0059  -0.0059   0.0049  -0.0049   0.79   13.7
2020/11/05 05:16:15.000  -3961765.2149   3349009.3013   3698311.6651   1  23   0.0066   0.0070   0.0059  -0.0059   0.0049  -0.0048  -0.01   16.7
2020/11/05 05:16:15.200  -3961765.2171   3349009.3037   3698311.6665   1  23   0.0066   0.0070   0.0059  -0.0059   0.0049  -0.0048   0.19   16.2
2020/11/05 05:16:15.400  -3961765.2182   3349009.3046   3698311.6671   1  23   0.0066   0.0070   0.0059  -0.0059   0.0049  -0.0048   0.38   14.9
2020/11/05 05:16:15.600  -3961765.2179   3349009.3051   3698311.6689   1  23   0.0067   0.0070   0.0059  -0.0059   0.0049  -0.0048   0.58   14.3
2020/11/05 05:16:15.800  -3961765.2193   3349009.3053   3698311.6698   1  23   0.0067   0.0070   0.0059  -0.0059   0.0049  -0.0049   0.79   15.9
2020/11/05 05:16:16.000  -3961765.2148   3349009.3015   3698311.6654   1  23   0.0066   0.0070   0.0059  -0.0059   0.0049  -0.0048  -0.01   15.3
2020/11/05 05:16:16.200  -3961765.2156   3349009.3018   3698311.6658   1  23   0.0066   0.0070   0.0059  -0.0059   0.0049  -0.0048   0.19   15.4
2020/11/05 05:16:16.400  -3961765.2176   3349009.3030   3698311.6672   1  23   0.0066   0.0070   0.0059  -0.0059   0.0049  -0.0048   0.38   14.3
2020/11/05 05:16:16.600  -3961765.2172   3349009.3027   3698311.6678   1  23   0.0067   0.0070   0.0059  -0.0059   0.0049  -0.0048   0.58   15.3
2020/11/05 05:16:16.800  -3961765.2174   3349009.3036   3698311.6671   1  23   0.0067   0.0070   0.0059  -0.0059   0.0049  -0.0049   0.79   16.6
2020/11/05 05:16:17.000  -3961765.2146   3349009.3011   3698311.6659   1  23   0.0066   0.0070   0.0059  -0.0059   0.0049  -0.0048  -0.01   14.7
2020/11/05 05:16:17.200  -3961765.2153   3349009.3025   3698311.6670   1  23   0.0066   0.0070   0.0059  -0.0059   0.0049  -0.0048   0.19   17.1
2020/11/05 05:16:17.400  -3961765.2152   3349009.3027   3698311.6667   1  23   0.0066   0.0070   0.0059  -0.0059   0.0049  -0.0048   0.38   17.3
2020/11/05 05:16:17.600  -3961765.2150   3349009.3022   3698311.6674   1  23   0.0067   0.0070   0.0059  -0.0059   0.0049  -0.0048   0.58   20.5
2020/11/05 05:16:17.800  -3961765.2173   3349009.3031   3698311.6672   1  23   0.0067   0.0070   0.0059  -0.0059   0.0049  -0.0049   0.79   21.5
2020/11/05 05:16:18.000  -3961765.2154   3349009.3008   3698311.6655   1  23   0.0066   0.0070   0.0059  -0.0058   0.0049  -0.0048  -0.01   16.3
2020/11/05 05:16:18.200  -3961765.2159   3349009.3020   3698311.6663   1  23   0.0066   0.0070   0.0059  -0.0059   0.0049  -0.0048   0.19   18.0
2020/11/05 05:16:18.400  -3961765.2155   3349009.3022   3698311.6662   1  23   0.0066   0.0070   0.0059  -0.0059   0.0049  -0.0048   0.38   15.0
2020/11/05 05:16:18.600  -3961765.2183   3349009.3060   3698311.6673   1  23   0.0067   0.0070   0.0059  -0.0059   0.0049  -0.0048   0.58   14.0
2020/11/05 05:16:18.800  -3961765.2157   3349009.3026   3698311.6644   1  23   0.0067   0.0070   0.0059  -0.0059   0.0049  -0.0049   0.79   14.0
2020/11/05 05:16:19.000  -3961765.2155   3349009.3014   3698311.6655   1  23   0.0066   0.0070   0.0059  -0.0058   0.0049  -0.0048  -0.01   15.2
2020/11/05 05:16:19.200  -3961765.2170   3349009.3020   3698311.6667   1  23   0.0066   0.0070   0.0059  -0.0059   0.0049  -0.0048   0.19   16.6
2020/11/05 05:16:19.400  -3961765.2162   3349009.3020   3698311.6658   1  23   0.0066   0.0070   0.0059  -0.0059   0.0049  -0.0048   0.38   16.0
2020/11/05 05:16:19.600  -3961765.2148   3349009.2997   3698311.6641   1  23   0.0067   0.0070   0.0059  -0.0059   0.0049  -0.0048   0.58   17.2
2020/11/05 05:16:19.800  -3961765.2153   3349009.3006   3698311.6652   1  23   0.0067   0.0070   0.0059  -0.0059   0.0049  -0.0049   0.79   14.7
2020/11/05 05:16:20.000  -3961765.2160   3349009.3016   3698311.6672   1  23   0.0066   0.0070   0.0058  -0.0058   0.0049  -0.0048  -0.01   15.6
2020/11/05 05:16:20.200  -3961765.2154   3349009.3022   3698311.6662   1  23   0.0066   0.0070   0.0059  -0.0059   0.0049  -0.0048   0.19   15.1
2020/11/05 05:16:20.400  -3961765.2158   3349009.3028   3698311.6674   1  23   0.0066   0.0070   0.0059  -0.0059   0.0049  -0.0048   0.38   13.3
2020/11/05 05:16:20.600  -3961765.2152   3349009.3035   3698311.6670   1  23   0.0067   0.0070   0.0059  -0.0059   0.0049  -0.0048   0.58   13.1
2020/11/05 05:16:20.800  -3961765.2143   3349009.3019   3698311.6654   1  23   0.0067   0.0070   0.0059  -0.0059   0.0049  -0.0049   0.79   14.3
2020/11/05 05:16:21.000  -3961765.2155   3349009.3020   3698311.6655   1  23   0.0066   0.0070   0.0058  -0.0058   0.0049  -0.0048  -0.01   20.4
2020/11/05 05:16:21.200  -3961765.2157   3349009.3029   3698311.6654   1  23   0.0066   0.0070   0.0059  -0.0059   0.0049  -0.0048   0.19   19.0
2020/11/05 05:16:21.400  -3961765.2168   3349009.3030   3698311.6673   1  23   0.0066   0.0070   0.0059  -0.0059   0.0049  -0.0048   0.38   20.8
2020/11/05 05:16:21.600  -3961765.2168   3349009.3028   3698311.6667   1  23   0.0067   0.0070   0.0059  -0.0059   0.0049  -0.0048   0.58   15.0
2020/11/05 05:16:21.800  -3961765.2153   3349009.3021   3698311.6668   1  23   0.0067   0.0070   0.0059  -0.0059   0.0049  -0.0049   0.79   17.2
2020/11/05 05:16:22.000  -3961765.2165   3349009.3031   3698311.6673   1  23   0.0066   0.0069   0.0058  -0.0058   0.0049  -0.0048  -0.01   20.4
2020/11/05 05:16:22.200  -3961765.2146   3349009.3015   3698311.6675   1  23   0.0066   0.0070   0.0059  -0.0059   0.0049  -0.0048   0.19   20.4
2020/11/05 05:16:22.400  -3961765.2142   3349009.3014   3698311.6672   1  23   0.0066   0.0070   0.0059  -0.0059   0.0049  -0.0048   0.38   20.0
2020/11/05 05:16:22.600  -3961765.2139   3349009.2994   3698311.6659   1  23   0.0067   0.0070   0.0059  -0.0059   0.0049  -0.0048   0.58   23.2
2020/11/05 05:16:22.800  -3961765.2124   3349009.2989   3698311.6670   1  23   0.0067   0.0070   0.0059  -0.0059   0.0049  -0.0049   0.79   18.9
2020/11/05 05:16:23.000  -3961765.2147   3349009.3029   3698311.6655   1  23   0.0066   0.0069   0.0058  -0.0058   0.0049  -0.0048  -0.01   18.4
2020/11/05 05:16:23.200  -3961765.2149   3349009.3020   3698311.6660   1  23   0.0066   0.0070   0.0059  -0.0059   0.0049  -0.0048   0.19   16.7
2020/11/05 05:16:23.400  -3961765.2147   3349009.3027   3698311.6671   1  23   0.0066   0.0070   0.0059  -0.0059   0.0049  -0.0048   0.38   16.1
2020/11/05 05:16:23.600  -3961765.2137   3349009.3013   3698311.6656   1  23   0.0067   0.0070   0.0059  -0.0059   0.0049  -0.0048   0.58   24.8
2020/11/05 05:16:23.800  -3961765.2131   3349009.2999   3698311.6660   1  23   0.0067   0.0070   0.0059  -0.0059   0.0049  -0.0049   0.79   17.8
2020/11/05 05:16:24.000  -3961765.2165   3349009.3042   3698311.6668   1  23   0.0066   0.0069   0.0058  -0.0058   0.0049  -0.0048  -0.01   17.1
2020/11/05 05:16:24.200  -3961765.2155   3349009.3016   3698311.6657   1  23   0.0066   0.0070   0.0058  -0.0059   0.0049  -0.0048   0.19   17.8
2020/11/05 05:16:24.400  -3961765.2166   3349009.3029   3698311.6668   1  23   0.0066   0.0070   0.0059  -0.0059   0.0049  -0.0048   0.38   16.2
2020/11/05 05:16:24.600  -3961765.2150   3349009.3020   3698311.6660   1  23   0.0067   0.0070   0.0059  -0.0059   0.0049  -0.0048   0.58   15.0
2020/11/05 05:16:24.800  -3961765.2167   3349009.3024   3698311.6660   1  23   0.0067   0.0070   0.0059  -0.0059   0.0049  -0.0049   0.79   18.5
2020/11/05 05:16:25.000  -3961765.2176   3349009.3048   3698311.6683   1  23   0.0066   0.0069   0.0058  -0.0058   0.0049  -0.0048  -0.01   15.1
2020/11/05 05:16:25.200  -3961765.2157   3349009.3035   3698311.6672   1  23   0.0066   0.0070   0.0058  -0.0059   0.0049  -0.0048   0.19   16.3
2020/11/05 05:16:25.400  -3961765.2174   3349009.3041   3698311.6677   1  23   0.0066   0.0070   0.0059  -0.0059   0.0049  -0.0048   0.38   15.3
2020/11/05 05:16:25.600  -3961765.2169   3349009.3026   3698311.6669   1  23   0.0067   0.0070   0.0059  -0.0059   0.0049  -0.0048   0.58   16.4
2020/11/05 05:16:25.800  -3961765.2184   3349009.3055   3698311.6684   1  23   0.0067   0.0070   0.0059  -0.0059   0.0049  -0.0049   0.79   20.3
2020/11/05 05:16:26.000  -3961765.2182   3349009.3056   3698311.6689   1  23   0.0066   0.0069   0.0058  -0.0058   0.0049  -0.0048  -0.01   24.3
2020/11/05 05:16:26.200  -3961765.2186   3349009.3064   3698311.6688   1  23   0.0066   0.0070   0.0058  -0.0059   0.0049  -0.0048   0.19   19.2
2020/11/05 05:16:26.400  -3961765.2180   3349009.3052   3698311.6674   1  23   0.0066   0.0070   0.0059  -0.0059   0.0049  -0.0048   0.38   22.7
2020/11/05 05:16:26.600  -3961765.2185   3349009.3055   3698311.6689   1  23   0.0067   0.0070   0.0059  -0.0059   0.0049  -0.0048   0.58   20.8
2020/11/05 05:16:26.800  -3961765.2178   3349009.3051   3698311.6685   1  23   0.0067   0.0070   0.0059  -0.0059   0.0049  -0.0049   0.79   18.2
2020/11/05 05:16:27.000  -3961765.2168   3349009.3041   3698311.6684   1  23   0.0066   0.0069   0.0058  -0.0058   0.0049  -0.0048  -0.01   19.7
2020/11/05 05:16:27.200  -3961765.2169   3349009.3035   3698311.6674   1  23   0.0066   0.0070   0.0058  -0.0058   0.0049  -0.0048   0.19   19.5
2020/11/05 05:16:27.400  -3961765.2165   3349009.3045   3698311.6684   1  23   0.0066   0.0070   0.0059  -0.0059   0.0049  -0.0048   0.38   18.5
2020/11/05 05:16:27.600  -3961765.2169   3349009.3047   3698311.6677   1  23   0.0067   0.0070   0.0059  -0.0059   0.0049  -0.0048   0.58   24.7
2020/11/05 05:16:27.800  -3961765.2156   3349009.3039   3698311.6666   1  23   0.0067   0.0070   0.0059  -0.0059   0.0049  -0.0049   0.79   19.7
2020/11/05 05:16:28.000  -3961765.2174   3349009.3056   3698311.6690   1  23   0.0066   0.0069   0.0058  -0.0058   0.0049  -0.0048  -0.01   22.2
2020/11/05 05:16:28.200  -3961765.2186   3349009.3067   3698311.6690   1  23   0.0066   0.0070   0.0058  -0.0058   0.0049  -0.0048   0.19   28.5
2020/11/05 05:16:28.400  -3961765.2186   3349009.3060   3698311.6690   1  23   0.0066   0.0070   0.0059  -0.0059   0.0049  -0.0048   0.38   25.8
2020/11/05 05:16:28.600  -3961765.2188   3349009.3059   3698311.6702   1  23   0.0067   0.0070   0.0059  -0.0059   0.0049  -0.0048   0.58   23.3
2020/11/05 05:16:28.800  -3961765.2181   3349009.3071   3698311.6688   1  23   0.0067   0.0070   0.0059  -0.0059   0.0049  -0.0049   0.79   27.7
2020/11/05 05:16:29.000  -3961765.2183   3349009.3057   3698311.6682   1  23   0.0066   0.0069   0.0058  -0.0058   0.0049  -0.0048  -0.01   26.7
2020/11/05 05:16:29.200  -3961765.2188   3349009.3060   3698311.6680   1  23   0.0066   0.0070   0.0058  -0.0058   0.0049  -0.0048   0.19   21.1
2020/11/05 05:16:29.400  -3961765.2212   3349009.3081   3698311.6694   1  23   0.0066   0.0070   0.0059  -0.0059   0.0049  -0.0048   0.38   20.7
2020/11/05 05:16:29.600  -3961765.2218   3349009.3091   3698311.6695   1  23   0.0067   0.0070   0.0059  -0.0059   0.0049  -0.0048   0.58   18.8
2020/11/05 05:16:29.800  -3961765.2206   3349009.3101   3698311.6706   1  23   0.0067   0.0070   0.0059  -0.0059   0.0049  -0.0049   0.79   22.9
2020/11/05 05:16:30.000  -3961765.2179   3349009.3043   3698311.6681   1  23   0.0066   0.0069   0.0058  -0.0058   0.0049  -0.0048  -0.01   21.6
2020/11/05 05:16:30.200  -3961765.2199   3349009.3065   3698311.6695   1  23   0.0066   0.0070   0.0058  -0.0058   0.0049  -0.0048   0.19   19.9
2020/11/05 05:16:30.400  -3961765.2214   3349009.3069   3698311.6713   1  23   0.0066   0.0070   0.0059  -0.0059   0.0049  -0.0048   0.38   22.0
2020/11/05 05:16:30.600  -3961765.2210   3349009.3072   3698311.6724   1  23   0.0067   0.0070   0.0059  -0.0059   0.0049  -0.0048   0.58   17.5
