     3.02           OBSERVATION DATA    M: Mixed            RINEX VERSION / TYPE
RTKCONV 2.4.3 b33                       20210408 051127 UTC PGM / RUN BY / DATE 
log: C:\Users\denshi\Desktop\Byyize\20201105\base           COMMENT             
format: u-blox                                              COMMENT             
                                                            MARKER NAME         
                                                            MARKER NUMBER       
                                                            MARKER TYPE         
                                                            OBSERVER / AGENCY   
                                                            REC # / TYPE / VERS 
                                                            ANT # / TYPE        
 -3961909.8277  3348999.2275  3698216.8430                  APPROX POSITION XYZ 
        0.0000        0.0000        0.0000                  ANTENNA: DELTA H/E/N
G    4 C1C L1C D1C S1C                                      SYS / # / OBS TYPES 
J    4 C1C L1C D1C S1C                                      SYS / # / OBS TYPES 
  2020    11     5     4    47   36.0070000     GPS         TIME OF FIRST OBS   
  2020    11     5     5    58   58.9880000     GPS         TIME OF LAST OBS    
G                                                           SYS / PHASE SHIFT   
J                                                           SYS / PHASE SHIFT   
  0                                                         GLONASS SLOT / FRQ #
 C1C    0.000 C1P    0.000 C2C    0.000 C2P    0.000        GLONASS COD/PHS/BIS 
                                                            END OF HEADER       
> 2020 11  5  4 47 36.0070000  0 13                     
G28  26358503.050   138514898.810       -1724.998          39.000  
G23  24338392.708   127899133.692        2157.902          44.000  
G15  22435701.103   117900472.837       -1152.399          48.000  
G24  22333188.112   117361763.964         782.588          47.000  
J 1  40831527.330   214571118.130        -223.010          44.000  
G10  27383585.795   143901702.273        2736.994          38.000  
G 5  25326656.292   133092494.377       -3825.908          41.000  
G20  23928324.113   125744190.578        2095.193          45.000  
J 2  38973029.337   204804724.702        -523.845          43.000  
G13  24099094.334   126641676.553       -2840.820          45.000  
G18  23770876.746   124916857.037       -1519.843          45.000  
J 7  39321873.072   206637846.975        -701.347          38.000  
J 3  39839057.062                3      -1051.145          16.000  
> 2020 11  5  4 47 37.0070000  0 13                     
G28  26358831.347   138516624.134       -1726.178          39.000  
G23  24337982.129   127896976.335        2157.032          44.000  
G15  22435920.440   117901625.427       -1152.654          48.000  
G24  22333039.262   117360981.782         781.711          47.000  
J 1  40831569.699   214571341.006        -222.943          44.000  
G10  27383064.955   143898965.247        2736.796          38.000  
G 5  25327384.418   133096320.371       -3826.285          41.000  
G20  23927925.490   125742095.510        2094.674          45.000  
J 2  38973129.057   204805248.799        -524.394          43.000  
G13  24099634.948   126644517.498       -2841.290          45.000  
G18  23771166.016   124918377.279       -1520.871          45.000  
J 7  39322006.514   206638548.350        -701.294          38.000  
J 3  39839254.952                3      -1046.852          16.000  
> 2020 11  5  4 47 38.0070000  0 13                     
G28  26359159.731   138518349.859       -1726.227          39.000  
G23  24337571.592   127894819.078        2157.005          44.000  
G15  22436139.797   117902778.229       -1153.153          48.000  
G24  22332890.406   117360200.079         781.383          47.000  
J 1  40831612.067   214571563.749        -223.218          44.000  
G10  27382544.147   143896228.084        2737.043          38.000  
G 5  25328112.534   133100146.516       -3826.312          41.000  
G20  23927526.872   125740000.650        2094.556          44.000  
J 2  38973228.774   204805772.888        -524.295          43.000  
G13  24100175.554   126647358.473       -2841.350          45.000  
G18  23771455.410   124919898.054       -1521.347          45.000  
J 7  39322139.936   206639249.639        -701.504          38.000  
J 3  39839452.764                3      -1052.702          16.000  
> 2020 11  5  4 47 39.0070000  0 13                     
G28  26359488.275   138520076.103       -1726.141          39.000  
G23  24337161.268   127892662.034        2157.036          44.000  
G15  22436359.203   117903931.280       -1153.242          48.000  
G24  22332741.719   117359418.925         780.827          47.000  
J 1  40831654.496   214571786.390        -222.937          44.000  
G10  27382023.297   143893490.852        2737.260          38.000  
G 5  25328840.682   133103972.903       -3826.641          41.000  
G20  23927128.271   125737906.076        2094.273          44.000  
J 2  38973328.493   204806297.031        -524.264          43.000  
G13  24100716.294   126650199.532       -2841.199          45.000  
G18  23771744.989   124921419.421       -1521.744          45.000  
J 7  39322273.332   206639950.918        -701.489          38.000  
J 3  39839653.545                3      -1053.327          16.000  
> 2020 11  5  4 47 40.0070000  0 13                     
G28  26359816.922   138521802.713       -1727.089          39.000  
G23  24336750.935   127890505.047        2157.033          44.000  
G15  22436578.610   117905084.461       -1153.292          48.000  
G24  22332593.156   117358638.171         780.414          47.000  
J 1  40831696.807   214572008.780        -222.217          44.000  
G10  27381502.445   143890753.421        2737.235          38.000  
G 5  25329568.867   133107799.328       -3826.707          41.000  
G20  23926729.652   125735811.620        2094.369          44.000  
J 2  38973428.164   204806821.094        -524.194          43.000  
G13  24101256.926   126653040.533       -2841.230          45.000  
G18  23772034.619   124922941.244       -1522.062          45.000  
J 7  39322406.711   206640652.012        -701.330          38.000  
J 3  39839852.869                3      -1054.111          16.000  
> 2020 11  5  4 47 41.0070000  0 13                     
G28  26360145.545   138523529.862       -1727.542          39.000  
G23  24336340.637   127888348.334        2156.391          44.000  
G15  22436798.083   117906237.969       -1153.810          48.000  
G24  22332444.782   117357858.011         779.872          47.000  
J 1  40831739.159   214572231.163        -222.559          44.000  
G10  27380981.479   143888015.979        2737.232          38.000  
G 5  25330297.019   133111626.068       -3827.060          41.000  
G20  23926331.161   125733717.520        2093.661          44.000  
J 2  38973527.760   204807345.285        -524.421          43.000  
G13  24101797.566   126655881.674       -2841.413          45.000  
G18  23772324.390   124924463.727       -1522.777          45.000  
J 7  39322540.176   206641353.126        -701.026          38.000  
J 3  39840050.771                3      -1060.091          16.000  
> 2020 11  5  4 47 42.0070000  0 13                     
G28  26360474.476   138525257.624       -1728.029          39.000  
G23  24335930.295   127886191.911        2156.293          43.000  
G15  22437017.633   117907391.843       -1154.028          47.000  
G24  22332296.443   117357078.544         779.075          47.000  
J 1  40831781.459   214572453.558        -222.437          44.000  
G10  27380460.587   143885278.589        2737.303          38.000  
G 5  25331025.300   133115453.129       -3827.097          41.000  
G20  23925932.647   125731623.798        2093.504          45.000  
J 2  38973627.627   204807869.640        -524.531          43.000  
G13  24102338.294   126658723.018       -2841.443          45.000  
G18  23772614.262   124925986.941       -1523.921          45.000  
J 7  39322673.586   206642054.363        -701.576          38.000  
J 3  39840251.394                3      -1056.396          17.000  
> 2020 11  5  4 47 43.0070000  0 13                     
G28  26360803.386   138526985.975       -1728.934          39.000  
G23  24335519.995   127884035.777        2156.296          44.000  
G15  22437237.292   117908546.082       -1154.519          48.000  
G24  22332148.195   117356299.725         778.427          47.000  
J 1  40831823.772   214572675.972        -222.614          44.000  
G10  27379939.729   143882541.228        2737.392          38.000  
G 5  25331753.725   133119280.521       -3827.675          41.000  
G20  23925534.321   125729530.457        2092.992          45.000  
J 2  38973727.468   204808394.162        -524.657          43.000  
G13  24102878.989   126661564.564       -2841.918          45.000  
G18  23772904.227   124927510.826       -1524.477          45.000  
J 7  39322807.061   206642755.644        -701.506          38.000  
J 3  39840452.574                3      -1056.771          17.000  
> 2020 11  5  4 47 44.0070000  0 13                     
G28  26361132.439   138528714.894       -1729.339          39.000  
G23  24335109.765   127881879.953        2155.756          44.000  
G15  22437456.910   117909700.643       -1154.901          48.000  
G24  22332000.125   117355521.530         777.729          47.000  
J 1  40831866.073   214572898.355        -222.552          44.000  
G10  27379418.813   143879803.885        2737.280          38.000  
G 5  25332482.043   133123108.193       -3827.891          41.000  
G20  23925136.073   125727437.460        2092.698          44.000  
J 2  38973827.315   204808918.801        -524.747          43.000  
G13  24103419.741   126664406.244       -2841.967          45.000  
G18  23773194.416   124929035.382       -1525.228          45.000  
J 7  39322940.517   206643456.972        -701.399          38.000  
J 3  39840654.461                3      -1053.791          17.000  
> 2020 11  5  4 47 45.0070000  0 13                     
G28  26361461.596   138530444.340       -1729.865          39.000  
G23  24334699.512   127879724.332        2155.640          44.000  
G15  22437676.769   117910855.496       -1155.063          48.000  
G24  22331852.167   117354743.902         777.486          47.000  
J 1  40831908.371   214573120.692        -222.552          44.000  
G10  27378897.840   143877066.505        2737.409          38.000  
G 5  25333210.511   133126936.121       -3828.321          41.000  
G20  23924737.751   125725344.778        2092.425          44.000  
J 2  38973927.213   204809443.544        -524.796          43.000  
G13  24103960.520   126667248.044       -2841.848          45.000  
G18  23773484.664   124930560.557       -1525.363          45.000  
J 7  39323074.014   206644158.315        -701.471          38.000  
J 3  39840856.482                3      -1051.746          17.000  
> 2020 11  5  4 47 46.0070000  0 13                     
G28  26361790.754   138532174.093       -1729.895          39.000  
G23  24334289.304   127877568.749        2155.531          44.000  
G15  22437896.576   117912010.438       -1155.082          47.000  
G24  22331704.267   117353966.662         777.136          47.000  
J 1  40831950.720   214573342.748        -222.083          44.000  
G10  27378376.859   143874328.855        2738.071          38.000  
G 5  25333938.874   133130764.088       -3827.828          41.000  
G20  23924339.606   125723252.194        2092.451          44.000  
J 2  38974027.020   204809968.180        -524.758          43.000  
G13  24104501.240   126670089.768       -2841.765          45.000  
G18  23773774.906   124932086.163       -1525.800          45.000  
J 7  39323207.421   206644859.441        -700.893          38.000  
J 3  39841055.215                3      -1053.753          15.000  
> 2020 11  5  4 47 47.0070000  0 13                     
G28  26362120.027   138533904.472       -1730.769          39.000  
G23  24333879.149   127875413.462        2155.413          44.000  
G15  22438116.400   117913165.743       -1155.569          48.000  
G24  22331556.532   117353190.063         776.082          47.000  
J 1  40831992.944   214573564.815        -221.979          44.000  
G10  27377855.950   143871591.285        2737.779          38.000  
G 5  25334667.364   133134592.382       -3828.300          41.000  
G20  23923941.558   125721159.993        2091.986          44.000  
J 2  38974126.831   204810492.973        -524.992          43.000  
G13  24105042.045   126672931.688       -2842.307          45.000  
G18  23774065.342   124933612.469       -1526.656          45.000  
J 7  39323340.968   206645560.682        -701.336          38.000  
J 3  39841256.696                3      -1061.633          15.000  
> 2020 11  5  4 47 48.0070000  0 13                     
G28  26362449.367   138535635.467       -1731.284          39.000  
G23  24333469.004   127873258.530        2154.696          43.000  
G15  22438336.242   117914321.444       -1155.861          47.000  
G24  22331408.833   117352414.108         775.664          47.000  
J 1  40832035.170   214573786.951        -222.052          44.000  
G10  27377335.021   143868853.795        2737.127          38.000  
G 5  25335396.004   133138421.052       -3828.759          41.000  
G20  23923543.488   125719068.213        2091.628          44.000  
J 2  38974226.697   204811017.956        -525.045          43.000  
G13  24105582.910   126675773.806       -2842.173          45.000  
G18  23774355.942   124935139.517       -1527.329          45.000  
J 7  39323474.382   206646262.005        -701.473          38.000  
J 3  39841461.576                3      -1073.632          13.000  
> 2020 11  5  4 47 49.0070000  0 13                     
G28  26362778.916   138537367.063       -1732.167          39.000  
G23  24333058.953   127871103.894        2154.185          43.000  
G15  22438556.169   117915477.503       -1156.245          47.000  
G24  22331261.265   117351638.798         774.949          47.000  
J 1  40832077.459   214574009.097        -222.113          44.000  
G10  27376814.040   143866116.312        2737.285          38.000  
G 5  25336124.713   133142250.028       -3829.313          41.000  
G20  23923145.525   125716976.807        2091.319          44.000  
J 2  38974326.654   204811543.110        -525.249          43.000  
G13  24106123.824   126678616.124       -2842.381          45.000  
G18  23774646.623   124936667.270       -1528.143          45.000  
J 7  39323607.843   206646963.400        -701.450          38.000  
J 3  39841662.054                3      -1042.382          11.000  
> 2020 11  5  4 47 50.0070000  0 13                     
G28  26363108.449   138539098.965       -1732.310          39.000  
G23  24332648.938   127868949.259        2154.377          44.000  
G15  22438776.151   117916633.638       -1156.278          48.000  
G24  22331113.796   117350863.873         774.623          47.000  
J 1  40832119.728   214574230.947        -221.777          44.000  
G10  27376293.078   143863378.595        2737.655          38.000  
G 5  25336853.436   133146079.034       -3829.117          41.000  
G20  23922747.603   125714885.495        2091.255          44.000  
J 2  38974426.562   204812068.131        -524.941          43.000  
G13  24106664.642   126681458.354       -2842.322          45.000  
G18  23774937.534   124938195.414       -1528.442          45.000  
J 7  39323741.334   206647664.575        -701.103          38.000  
J 3                                                                
> 2020 11  5  4 47 51.0070000  0 13                     
G28  26363438.046   138540831.261       -1732.927          39.000  
G23  24332238.949   127866794.740        2153.953          44.000  
G15  22438996.268   117917789.951       -1156.907          48.000  
G24  22330966.454   117350089.415         773.746          47.000  
J 1  40832161.925   214574452.637        -222.070          44.000  
G10  27375772.086   143860640.715        2737.686          39.000  
G 5  25337582.119   133149908.200       -3829.777          41.000  
G20  23922349.596   125712794.384        2090.523          44.000  
J 2  38974526.505   204812593.144        -525.552          43.000  
G13  24107205.513   126684300.584       -2842.691          45.000  
G18  23775228.407   124939724.078       -1529.377          45.000  
J 7  39323874.651   206648365.661        -701.579          38.000  
J 3                                                                
> 2020 11  5  4 47 52.0070000  0 13                     
G28  26363767.800   138542564.366       -1733.368          39.000  
G23  24331829.120   127864640.740        2153.935          44.000  
G15  22439216.320   117918946.809       -1157.068          48.000  
G24  22330819.245   117349315.788         773.179          47.000  
J 1  40832204.119   214574674.528        -221.869          44.000  
G10  27375251.234   143857903.083        2737.575          39.000  
G 5  25338310.882   133153737.861       -3829.822          41.000  
G20  23921951.818   125710703.831        2090.170          44.000  
J 2  38974626.437   204813118.512        -525.513          43.000  
G13  24107746.355   126687143.185       -2842.938          45.000  
G18  23775519.476   124941253.645       -1530.051          45.000  
J 7  39324008.148   206649067.021        -701.746          38.000  
J 3                                                                
> 2020 11  5  4 47 53.0070000  0 13                     
G28  26364097.689   138544298.160       -1733.955          39.000  
G23  24331419.281   127862487.096        2154.118          44.000  
G15  22439436.652   117920104.115       -1157.386          47.000  
G24  22330672.113   117348542.893         772.731          47.000  
J 1  40832246.365   214574896.513        -221.741          44.000  
G10  27374730.217   143855165.559        2737.831          39.000  
G 5  25339039.730   133157567.937       -3830.097          41.000  
G20  23921554.051   125708613.737        2090.077          44.000  
J 2  38974726.454   204813644.099        -525.430          43.000  
G13  24108287.326   126689986.065       -2842.903          45.000  
G18  23775810.674   124942783.980       -1530.356          45.000  
J 7  39324141.586   206649768.514        -701.279          38.000  
J 3                                                                
> 2020 11  5  4 47 54.0070000  0 13                     
G28  26364427.733   138546032.399       -1734.591          39.000  
G23  24331009.451   127860333.658        2153.274          44.000  
G15  22439656.821   117921261.653       -1157.619          47.000  
G24  22330525.219   117347770.503         772.277          47.000  
J 1  40832288.586   214575118.381        -221.838          44.000  
G10  27374209.213   143852427.950        2737.714          39.000  
G 5  25339768.668   133161398.212       -3830.459          41.000  
G20  23921156.265   125706523.900        2089.714          44.000  
J 2  38974826.396   204814169.737        -525.749          43.000  
G13  24108828.445   126692829.001       -2843.015          45.000  
G18  23776101.972   124944314.887       -1531.138          45.000  
J 7  39324274.943   206650469.970        -701.463          38.000  
J 3                                                                
> 2020 11  5  4 47 55.0070000  0 13                     
G28  26364757.914   138547767.169       -1735.020          39.000  
G23  24330599.707   127858180.434        2153.125          44.000  
G15  22439877.169   117922419.486       -1157.956          47.000  
G24  22330378.400   117346998.701         771.623          47.000  
J 1  40832330.858   214575340.201        -221.893          44.000  
G10  27373688.327   143849690.335        2737.247          39.000  
G 5  25340497.603   133165228.727       -3830.778          41.000  
G20  23920758.704   125704434.374        2089.439          44.000  
J 2  38974926.456   204814695.463        -525.750          43.000  
G13  24109369.427   126695672.051       -2843.033          45.000  
G18  23776393.326   124945846.421       -1531.708          45.000  
J 7  39324408.433   206651171.420        -701.233          38.000  
J 3                                                                
> 2020 11  5  4 47 56.0070000  0 13                     
G28  26365088.157   138549502.486       -1735.487          39.000  
G23  24330190.023   127856027.477        2152.876          44.000  
G15  22440097.519   117923577.626       -1158.124          48.000  
G24  22330231.695   117346227.517         770.901          47.000  
J 1  40832373.069   214575561.969        -221.606          44.000  
G10  27373167.254   143846952.656        2738.109          39.000  
G 5  25341226.594   133169059.510       -3830.830          41.000  
G20  23920361.155   125702345.175        2089.341          45.000  
J 2  38975026.559   204815221.303        -525.699          43.000  
G13  24109910.437   126698515.245       -2842.988          45.000  
G18  23776684.816   124947378.619       -1532.273          45.000  
J 7  39324542.010   206651872.903        -701.031          38.000  
J 3                                                                
> 2020 11  5  4 47 57.0070000  0 13                     
G28  26365418.467   138551238.171       -1735.938          39.000  
G23  24329780.365   127853874.597        2152.747          44.000  
G15  22440317.984   117924735.921       -1158.429          48.000  
G24  22330085.028   117345456.723         770.544          47.000  
J 1  40832415.211   214575783.533        -221.692          44.000  
G10  27372646.263   143844214.831        2737.989          39.000  
G 5  25341955.525   133172890.407       -3830.789          41.000  
G20  23919963.694   125700256.157        2088.735          45.000  
J 2  38975126.604   204815747.086        -525.862          43.000  
G13  24110451.360   126701358.388       -2843.069          45.000  
G18  23776976.574   124948911.286       -1533.013          46.000  
J 7  39324675.476   206652574.246        -701.440          38.000  
J 3                                                                
> 2020 11  5  4 47 58.0070000  0 13                     
G28  26365748.828   138552974.225       -1736.345          39.000  
G23  24329370.672   127851721.784        2152.541          44.000  
G15  22440538.390   117925894.338       -1158.667          47.000  
G24  22329938.356   117344686.361         769.927          47.000  
J 1  40832457.292   214576004.863        -221.393          44.000  
G10  27372125.184   143841476.793        2738.025          38.000  
G 5  25342684.626   133176721.404       -3831.107          41.000  
G20  23919566.122   125698167.257        2088.718          45.000  
J 2  38975226.677   204816272.797        -525.887          43.000  
G13  24110992.474   126704201.516       -2843.275          45.000  
G18  23777268.352   124950444.420       -1533.521          45.000  
J 7  39324808.803   206653275.418        -701.271          38.000  
J 3                                                                
> 2020 11  5  4 47 59.0070000  0 13                     
G28  26366079.262   138554710.632       -1736.895          39.000  
G23  24328961.001   127849569.008        2152.457          44.000  
G15  22440758.784   117927052.853       -1158.667          48.000  
G24  22329791.723   117343916.374         769.706          47.000  
J 1  40832499.371   214576225.950        -220.996          44.000  
G10  27371604.008   143838738.527        2738.634          38.000  
G 5  25343413.604   133180552.469       -3831.183          41.000  
G20  23919168.605   125696078.486        2088.666          45.000  
J 2  38975326.709   204816798.401        -525.680          43.000  
G13  24111533.438   126707044.557       -2842.957          45.000  
G18  23777560.123   124951977.975       -1533.713          45.000  
J 7  39324942.130   206653976.414        -701.037          38.000  
J 3                                                                
> 2020 11  5  4 48  0.0070000  0 13                     
G28  26366409.700   138556447.385       -1737.153          39.000  
G23  24328551.368   127847416.284        2152.709          44.000  
G15  22440979.307   117928211.492       -1158.717          48.000  
G24  22329645.401   117343146.801         769.327          47.000  
J 1  40832541.418   214576446.804        -220.630          44.000  
G10  27371082.948   143836000.069        2738.855          38.000  
G 5  25344142.603   133184383.600       -3831.053          41.000  
G20  23918771.107   125693989.868        2088.313          45.000  
J 2  38975426.818   204817323.932        -525.599          43.000  
G13  24112074.533   126709887.542       -2842.915          45.000  
G18  23777852.048   124953512.001       -1534.194          45.000  
J 7  39325075.572   206654677.252        -700.845          38.000  
J 3                                                                
> 2020 11  5  4 48  1.0070000  0 13                     
G28  26366740.285   138558184.571       -1737.709          39.000  
G23  24328141.819   127845263.722        2152.380          44.000  
G15  22441199.810   117929370.338       -1159.070          48.000  
G24  22329499.102   117342377.726         768.576          47.000  
J 1  40832583.427   214576667.525        -220.770          44.000  
G10  27370561.773   143833261.537        2737.987          38.000  
G 5  25344871.700   133188214.903       -3831.581          41.000  
G20  23918373.675   125691901.457        2088.106          45.000  
J 2  38975526.831   204817849.459        -525.659          43.000  
G13  24112615.563   126712730.551       -2843.099          45.000  
G18  23778144.037   124955046.557       -1534.828          45.000  
J 7  39325208.877   206655377.991        -700.942          38.000  
J 3                                                                
> 2020 11  5  4 48  2.0070000  0 13                     
G28  26367070.952   138559922.255       -1737.840          39.000  
G23  24327732.171   127843111.370        2152.235          44.000  
G15  22441420.371   117930529.442       -1159.160          48.000  
G24  22329352.869   117341609.229         768.256          47.000  
J 1  40832625.391   214576888.169        -220.709          44.000  
G10  27370040.696   143830522.886        2738.707          38.000  
G 5  25345600.890   133192046.425       -3831.498          41.000  
G20  23917976.345   125689813.332        2088.043          45.000  
J 2  38975626.866   204818375.068        -525.559          43.000  
G13  24113156.546   126715573.684       -2843.216          45.000  
G18  23778436.121   124956581.733       -1535.273          45.000  
J 7  39325342.271   206656078.717        -700.485          38.000  
J 3                                                                
> 2020 11  5  4 48  3.0070000  0 13                     
G28  26367401.685   138561660.404       -1738.265          39.000  
G23  24327322.523   127840959.189        2151.953          44.000  
G15  22441640.960   117931688.793       -1159.493          48.000  
G24  22329206.837   117340841.272         767.749          47.000  
J 1  40832667.326   214577108.674        -220.349          44.000  
G10  27369519.581   143827784.163        2738.755          38.000  
G 5  25346330.070   133195878.179       -3831.812          41.000  
G20  23917579.067   125687725.473        2087.837          45.000  
J 2  38975726.942   204818900.722        -525.943          43.000  
G13  24113697.611   126718416.841       -2842.955          45.000  
G18  23778728.373   124958117.479       -1536.215          45.000  
J 7  39325475.544   206656779.408        -700.636          38.000  
J 3                                                                
> 2020 11  5  4 48  4.0070000  0 13                     
G28  26367732.539   138563399.113       -1739.278          39.000  
G23  24326913.035   127838807.227        2151.896          44.000  
G15  22441861.725   117932848.430       -1159.766          48.000  
G24  22329060.746   117340073.878         767.188          47.000  
J 1  40832709.126   214577329.140        -220.416          44.000  
G10  27368998.434   143825045.400        2738.979          38.000  
G 5  25347059.275   133199710.170       -3832.094          41.000  
G20  23917181.781   125685637.924        2087.312          45.000  
J 2  38975826.892   204819426.435        -525.799          43.000  
G13  24114238.665   126721260.150       -2843.211          45.000  
G18  23779020.629   124959653.836       -1536.668          45.000  
J 7  39325608.947   206657480.081        -700.818          38.000  
J 3                                                                
> 2020 11  5  4 48  5.0070000  0 13                     
G28  26368063.485   138565138.092       -1739.150          39.000  
G23  24326503.572   127836655.278        2152.180          44.000  
G15  22442082.363   117934008.126       -1159.794          48.000  
G24  22328914.742   117339306.821         766.941          47.000  
J 1  40832751.089   214577549.309        -219.965          44.000  
G10  27368477.135   143822306.393        2739.380          38.000  
G 5  25347788.653   133203542.178       -3831.961          41.000  
G20  23916784.434   125683550.448        2087.487          45.000  
J 2  38975926.936   204819952.020        -525.300          43.000  
G13  24114779.735   126724103.347       -2843.346          45.000  
G18  23779313.162   124961190.598       -1537.024          45.000  
J 7  39325742.188   206658180.542        -700.304          38.000  
J 3                                                                
> 2020 11  5  4 48  6.0070000  0 13                     
G28  26368394.552   138566877.588       -1739.455          39.000  
G23  24326094.180   127834503.591        2151.549          44.000  
G15  22442303.062   117935168.110       -1160.067          48.000  
G24  22328768.842   117338540.348         766.278          47.000  
J 1  40832793.033   214577769.434        -220.074          44.000  
G10  27367955.889   143819567.328        2739.501          38.000  
G 5  25348517.944   133207374.432       -3832.094          41.000  
G20  23916387.321   125681463.290        2087.223          45.000  
J 2  38976027.010   204820477.705        -525.400          43.000  
G13  24115320.803   126726946.640       -2843.276          45.000  
G18  23779605.793   124962728.001       -1537.723          45.000  
J 7  39325875.482   206658880.990        -700.146          38.000  
J 3                                                                
> 2020 11  5  4 48  7.0070000  0 13                     
G28  26368725.673   138568617.679       -1740.597          39.000  
G23  24325684.752   127832352.126        2151.572          44.000  
G15  22442523.905   117936328.420       -1160.419          48.000  
G24  22328623.093   117337774.476         765.760          47.000  
J 1  40832834.930   214577989.516        -220.056          44.000  
G10  27367434.723   143816828.323        2738.771          38.000  
G 5  25349247.371   133211206.977       -3832.762          41.000  
G20  23915990.279   125679376.473        2086.702          45.000  
J 2  38976127.160   204821003.518        -525.801          43.000  
G13  24115861.994   126729790.087       -2843.348          45.000  
G18  23779898.414   124964266.040       -1538.282          45.000  
J 7  39326008.734   206659581.489        -700.332          38.000  
J 3                                                                
> 2020 11  5  4 48  8.0070000  0 13                     
G28  26369056.853   138570358.236       -1741.019          39.000  
G23  24325275.395   127830200.886        2151.087          44.000  
G15  22442744.804   117937488.956       -1160.791          48.000  
G24  22328477.395   117337009.135         764.996          47.000  
J 1  40832876.794   214578209.495        -220.068          44.000  
G10  27366913.421   143814089.187        2738.858          38.000  
G 5  25349976.737   133215039.712       -3832.970          41.000  
G20  23915593.244   125677289.924        2086.329          45.000  
J 2  38976227.146   204821529.377        -526.019          43.000  
G13  24116403.077   126732633.615       -2843.704          45.000  
G18  23780191.192   124965804.676       -1539.080          45.000  
J 7  39326142.037   206660281.940        -700.442          38.000  
J 3                                                                
> 2020 11  5  4 48  9.0070000  0 13                     
G28  26369388.174   138572099.329       -1741.366          39.000  
G23  24324866.162   127828049.884        2150.719          44.000  
G15  22442965.665   117938649.826       -1161.147          48.000  
G24  22328331.812   117336244.381         764.497          47.000  
J 1  40832918.656   214578429.457        -220.135          44.000  
G10  27366392.070   143811350.046        2739.119          38.000  
G 5  25350706.186   133218872.722       -3833.127          42.000  
G20  23915196.272   125675203.711        2086.023          45.000  
J 2  38976327.243   204822055.347        -525.989          43.000  
G13  24116944.235   126735477.284       -2843.881          45.000  
G18  23780484.116   124967343.954       -1539.646          45.000  
J 7  39326275.301   206660982.442        -700.619          38.000  
J 3                                                                
> 2020 11  5  4 48 10.0070000  0 13                     
G28  26369719.613   138573840.895       -1741.827          39.000  
G23  24324456.872   127825899.056        2150.928          44.000  
G15  22443186.694   117939810.918       -1161.164          48.000  
G24  22328186.417   117335480.155         764.013          47.000  
J 1  40832960.549   214578649.269        -219.690          44.000  
G10  27365870.842   143808610.820        2739.273          38.000  
G 5  25351435.615   133222705.902       -3833.160          42.000  
G20  23914799.346   125673117.754        2085.714          45.000  
J 2  38976427.344   204822581.355        -526.064          43.000  
G13  24117485.296   126738321.003       -2843.791          45.000  
G18  23780777.079   124968883.816       -1540.250          45.000  
J 7  39326408.624   206661682.865        -700.263          38.000  
J 3                                                                
> 2020 11  5  4 48 11.0070000  0 13                     
G28  26370051.132   138575583.030       -1742.506          38.000  
G23  24324047.598   127823748.516        2150.483          44.000  
G15  22443407.678   117940972.366       -1161.780          48.000  
G24  22328041.127   117334716.563         763.228          47.000  
J 1  40833002.443   214578869.101        -219.971          44.000  
G10  27365349.541   143805871.602        2739.510          38.000  
G 5  25352165.154   133226539.395       -3833.770          42.000  
G20  23914402.437   125671032.148        2085.314          45.000  
J 2  38976527.479   204823107.503        -526.391          43.000  
G13  24118026.422   126741164.913       -2844.238          45.000  
G18  23781070.209   124970424.332       -1540.983          45.000  
J 7  39326541.958   206662383.358        -700.669          38.000  
J 3                                                                
> 2020 11  5  4 48 12.0070000  0 13                     
G28  26370382.686   138577325.828       -1742.992          39.000  
G23  24323638.413   127821598.352        2149.908          44.000  
G15  22443628.686   117942134.225       -1162.142          48.000  
G24  22327895.868   117333953.690         762.504          47.000  
J 1  40833044.320   214579088.986        -219.952          44.000  
G10  27364828.299   143803132.510        2738.881          38.000  
G 5  25352894.701   133230373.266       -3834.045          42.000  
G20  23914005.589   125668946.984        2084.840          45.000  
J 2  38976627.518   204823633.873        -526.482          43.000  
G13  24118567.526   126744009.070       -2844.447          45.000  
G18  23781363.527   124971965.626       -1541.747          45.000  
J 7  39326675.329   206663083.980        -700.559          38.000  
J 3                                                                
> 2020 11  5  4 48 13.0070000  0 13                     
G28  26370714.416   138579069.260       -1743.469          39.000  
G23  24323229.433   127819448.525        2149.819          44.000  
G15  22443850.008   117943296.495       -1162.313          48.000  
G24  22327750.818   117333191.509         761.940          47.000  
J 1  40833086.149   214579308.943        -220.050          44.000  
G10  27364307.036   143800393.488        2738.947          38.000  
G 5  25353624.236   133234207.505       -3834.128          42.000  
G20  23913609.010   125666862.242        2084.812          45.000  
J 2  38976727.670   204824160.436        -526.494          43.000  
G13  24119108.746   126746853.461       -2844.443          45.000  
G18  23781656.998   124973507.649       -1542.194          45.000  
J 7  39326808.722   206663784.717        -700.348          38.000  
J 3                                                                
> 2020 11  5  4 48 14.0070000  0 13                     
G28  26371046.288   138580813.243       -1744.045          39.000  
G23  24322820.429   127817298.947        2149.418          44.000  
G15  22444071.278   117944459.071       -1162.846          48.000  
G24  22327605.912   117332429.908         761.220          47.000  
J 1  40833128.005   214579528.840        -220.026          44.000  
G10  27363785.849   143797654.446        2738.833          38.000  
G 5  25354353.895   133238042.019       -3834.746          42.000  
G20  23913212.495   125664777.832        2084.286          45.000  
J 2  38976827.939   204824687.128        -526.888          43.000  
G13  24119650.098   126749697.979       -2844.594          45.000  
G18  23781950.565   124975050.322       -1543.125          45.000  
J 7  39326942.059   206664485.499        -700.929          38.000  
J 3                                                                
> 2020 11  5  4 48 15.0070000  0 13                     
G28  26371378.193   138582557.647       -1744.546          39.000  
G23  24322411.497   127815149.484        2149.646          44.000  
G15  22444292.452   117945621.822       -1162.901          48.000  
G24  22327461.045   117331668.781         760.991          47.000  
J 1  40833169.785   214579748.576        -219.666          44.000  
G10  27363264.723   143794915.263        2739.506          38.000  
G 5  25355083.605   133241876.678       -3834.917          42.000  
G20  23912815.824   125662693.627        2084.155          45.000  
J 2  38976928.050   204825213.772        -526.617          43.000  
G13  24120191.453   126752542.502       -2844.639          45.000  
G18  23782244.124   124976593.498       -1543.496          45.000  
J 7  39327075.479   206665186.129        -700.363          38.000  
J 3                                                                
> 2020 11  5  4 48 16.0070000  0 13                     
G28  26371710.249   138584302.390       -1744.748          39.000  
G23  24322002.595   127813000.117        2149.243          44.000  
G15  22444513.771   117946784.701       -1162.941          48.000  
G24  22327316.240   117330908.077         760.472          47.000  
J 1  40833211.443   214579968.091        -219.299          44.000  
G10  27362743.415   143792175.879        2739.778          38.000  
G 5  25355813.338   133245711.390       -3834.630          42.000  
G20  23912419.248   125660609.567        2083.990          45.000  
J 2  38977028.265   204825740.373        -526.613          43.000  
G13  24120732.778   126755386.988       -2844.517          45.000  
G18  23782537.903   124978137.136       -1543.745          45.000  
J 7  39327208.794   206665886.645        -700.665          38.000  
J 3                                                                
> 2020 11  5  4 48 17.0070000  0 13                     
G28  26372042.327   138586047.566       -1745.754          39.000  
G23  24321593.577   127810850.820        2149.460          44.000  
G15  22444735.202   117947947.742       -1163.149          48.000  
G24  22327171.551   117330147.805         759.951          47.000  
J 1  40833253.135   214580187.415        -219.373          44.000  
G10  27362222.114   143789436.370        2739.395          38.000  
G 5  25356542.984   133249546.252       -3835.069          41.000  
G20  23912022.725   125658525.682        2083.883          45.000  
J 2  38977128.468   204826266.924        -526.662          43.000  
G13  24121274.180   126758231.451       -2844.533          45.000  
G18  23782831.695   124979681.294       -1544.478          45.000  
J 7  39327342.000   206666587.021        -700.353          38.000  
J 3                                                                
> 2020 11  5  4 48 18.0070000  0 13                     
G28  26372374.503   138587793.346       -1746.059          39.000  
G23  24321184.539   127808701.902        2148.535          44.000  
G15  22444956.699   117949111.187       -1163.757          47.000  
G24  22327027.032   117329388.216         759.239          47.000  
J 1  40833294.835   214580406.800        -219.513          44.000  
G10  27361700.869   143786696.916        2739.421          38.000  
G 5  25357272.847   133253381.461       -3835.438          41.000  
G20  23911626.195   125656442.242        2083.062          45.000  
J 2  38977228.711   204826793.692        -527.124          43.000  
G13  24121815.460   126761076.142       -2844.702          45.000  
G18  23783125.703   124981226.173       -1545.444          45.000  
J 7  39327475.292   206667287.500        -700.595          38.000  
J 3                                                                
> 2020 11  5  4 48 19.0070000  0 13                     
G28  26372706.865   138589539.702       -1746.784          39.000  
G23  24320775.775   127806553.236        2148.373          44.000  
G15  22445178.115   117950274.961       -1164.041          47.000  
G24  22326882.625   117328629.259         758.655          47.000  
J 1  40833336.607   214580626.158        -219.543          44.000  
G10  27361179.588   143783957.477        2738.777          38.000  
G 5  25358002.823   133257216.962       -3835.663          41.000  
G20  23911229.821   125654359.134        2082.718          45.000  
J 2  38977329.005   204827320.567        -527.162          43.000  
G13  24122356.745   126763920.983       -2845.072          45.000  
G18  23783419.853   124982771.718       -1546.009          45.000  
J 7  39327608.648   206667988.032        -700.558          38.000  
J 3                                                                
> 2020 11  5  4 48 20.0070000  0 13                     
G28  26373039.261   138591286.511       -1747.444          39.000  
G23  24320366.893   127804404.736        2147.976          44.000  
G15  22445399.646   117951438.944       -1164.428          47.000  
G24  22326738.432   117327870.810         757.954          47.000  
J 1  40833378.280   214580845.392        -219.739          44.000  
G10  27360658.246   143781217.913        2739.419          38.000  
G 5  25358732.609   133261052.638       -3836.053          41.000  
G20  23910833.538   125652276.273        2082.373          45.000  
J 2  38977429.306   204827847.470        -527.267          43.000  
G13  24122898.059   126766765.874       -2845.245          45.000  
G18  23783714.090   124984317.817       -1546.602          45.000  
J 7  39327742.011   206668688.498        -701.102          38.000  
J 3                                                                
> 2020 11  5  4 48 21.0070000  0 13                     
G28  26373371.776   138593033.932       -1747.700          39.000  
G23  24319958.079   127802256.567        2147.987          44.000  
G15  22445621.159   117952603.323       -1164.656          47.000  
G24  22326594.261   117327113.035         757.321          47.000  
J 1  40833419.862   214581064.639        -219.177          44.000  
G10  27360136.869   143778478.438        2739.216          38.000  
G 5  25359462.560   133264888.662       -3836.030          41.000  
G20  23910437.179   125650193.825        2082.141          45.000  
J 2  38977529.593   204828374.563        -527.434          43.000  
G13  24123439.485   126769610.967       -2845.422          45.000  
G18  23784008.396   124985864.640       -1547.199          45.000  
J 7  39327875.313   206669389.044        -700.591          38.000  
J 3                                                                
> 2020 11  5  4 48 22.0070000  0 13                     
G28  26373704.456   138594781.816       -1748.005          39.000  
G23  24319549.350   127800108.563        2148.014          44.000  
G15  22445842.756   117953767.910       -1164.705          47.000  
G24  22326450.159   117326355.757         756.997          47.000  
J 1  40833461.586   214581283.782        -219.037          44.000  
G10  27359615.471   143775738.841        2739.822          38.000  
G 5  25360192.584   133268724.875       -3836.228          41.000  
G20  23910040.883   125648111.614        2081.969          45.000  
J 2  38977629.856   204828901.673        -527.265          43.000  
G13  24123980.888   126772456.104       -2845.176          45.000  
G18  23784302.981   124987412.020       -1547.599          45.000  
J 7  39328008.550   206670089.546        -700.420          38.000  
J 3                                                                
> 2020 11  5  4 48 23.0070000  0 13                     
G28  26374037.158   138596530.377       -1748.671          39.000  
G23  24319140.652   127797960.946        2147.340          44.000  
G15  22446064.514   117954932.950       -1165.315          47.000  
G24  22326306.180   117325599.222         756.282          46.000  
J 1  40833503.317   214581503.006        -219.312          44.000  
G10  27359094.239   143772999.385        2739.219          37.000  
G 5  25360922.754   133272561.467       -3836.930          41.000  
G20  23909644.843   125646029.862        2081.472          44.000  
J 2  38977730.215   204829429.025        -527.520          42.000  
G13  24124522.432   126775301.502       -2845.429          45.000  
G18  23784597.550   124988960.170       -1548.409          45.000  
J 7  39328141.884   206670790.190        -700.662          38.000  
J 3                                                                
> 2020 11  5  4 48 24.0070000  0 13                     
G28  26374369.997   138598279.550       -1749.328          39.000  
G23  24318731.995   127795813.636        2147.135          44.000  
G15  22446286.228   117956098.356       -1165.628          47.000  
G24  22326162.338   117324843.359         755.476          47.000  
J 1  40833545.063   214581722.250        -219.196          44.000  
G10  27358572.969   143770259.953        2739.078          38.000  
G 5  25361652.952   133276398.399       -3837.024          41.000  
G20  23909248.769   125643948.506        2081.013          45.000  
J 2  38977830.661   204829956.544        -527.665          43.000  
G13  24125063.999   126778147.121       -2845.777          45.000  
G18  23784892.316   124990509.048       -1549.306          45.000  
J 7  39328275.222   206671490.931        -700.887          38.000  
J 3                                                                
> 2020 11  5  4 48 25.0070000  0 13                     
G28  26374703.025   138600029.480       -1750.310          39.000  
G23  24318323.482   127793666.798        2146.689          44.000  
G15  22446508.059   117957264.274       -1166.019          48.000  
G24  22326018.727   117324088.312         754.632          47.000  
J 1  40833586.905   214581941.666        -219.263          44.000  
G10  27358051.560   143767520.731        2739.295          37.000  
G 5  25362383.202   133280235.806       -3837.459          42.000  
G20  23908852.821   125641867.689        2080.562          45.000  
J 2  38977931.119   204830484.404        -528.171          43.000  
G13  24125605.356   126780993.067       -2846.077          45.000  
G18  23785187.281   124992058.769       -1550.014          45.000  
J 7  39328408.709   206672191.901        -701.125          38.000  
J 3                                                                
> 2020 11  5  4 48 26.0070000  0 14                     
G28  26375036.170   138601780.054       -1750.898          39.000  
G23  24317915.046   127791520.331        2146.406          44.000  
G15  22446730.043   117958430.630       -1166.596          48.000  
G24  22325875.174   117323334.006         753.931          47.000  
J 1  40833628.700   214582161.169        -219.543          44.000  
G10  27357530.314   143764781.637        2738.730          37.000  
G 5  25363113.557   133284073.609       -3838.018          42.000  
G20  23908456.936   125639787.328        2080.251          45.000  
J 2  38978031.583   204831012.477        -528.199          43.000  
G13  24126146.939   126783839.269       -2846.434          45.000  
G18  23785482.330   124993609.243       -1550.758          45.000  
J 7  39328542.087   206672893.003        -701.162          38.000  
J 3                                                                
G12                                                                
> 2020 11  5  4 48 27.0070000  0 14                     
G28  26375369.394   138603531.212       -1751.278          39.000  
G23  24317506.577   127789374.151        2146.142          44.000  
G15  22446952.019   117959597.324       -1166.806          48.000  
G24  22325731.734   117322580.310         753.488          47.000  
J 1  40833670.462   214582380.655        -219.501          44.000  
G10  27357009.101   143762042.523        2739.247          37.000  
G 5  25363843.995   133287911.699       -3838.368          42.000  
G20  23908061.169   125637707.325        2079.933          45.000  
J 2  38978132.114   204831540.687        -528.221          43.000  
G13  24126688.628   126786685.632       -2846.172          45.000  
G18  23785777.466   124995160.405       -1551.348          45.000  
J 7  39328675.533   206673594.198        -701.415          38.000  
J 3                                                                
G12                                                                
> 2020 11  5  4 48 28.0070000  0 14                     
G28  26375702.605   138605282.824       -1751.712          39.000  
G23  24317098.144   127787228.143        2145.918          44.000  
G15  22447174.057   117960764.245       -1167.006          48.000  
G24  22325588.470   117321827.138         752.990          47.000  
J 1  40833712.180   214582600.017        -219.434          44.000  
G10  27356487.793   143759303.333        2739.293          37.000  
G 5  25364574.395   133291749.962       -3838.246          42.000  
G20  23907665.347   125635627.573        2079.707          45.000  
J 2  38978232.674   204832068.944        -528.239          43.000  
G13  24127230.298   126789532.062       -2846.373          45.000  
G18  23786072.729   124996712.124       -1551.971          46.000  
J 7  39328808.933   206674295.284        -700.646          38.000  
J 3                                                                
G12                                                                
> 2020 11  5  4 48 29.0070000  0 14                     
G28  26376035.993   138607034.849       -1752.300          39.000  
G23  24316689.826   127785082.213        2146.167          44.000  
G15  22447396.168   117961931.305       -1166.919          48.000  
G24  22325445.126   117321074.360         752.808          47.000  
J 1  40833753.863   214582819.177        -218.872          44.000  
G10  27355966.524   143756563.962        2739.436          37.000  
G 5  25365304.831   133295588.365       -3838.501          42.000  
G20  23907269.522   125633547.978        2079.895          45.000  
J 2  38978333.171   204832597.128        -527.983          43.000  
G13  24127771.941   126792378.457       -2846.209          45.000  
G18  23786368.137   124998264.326       -1552.262          45.000  
J 7  39328942.243   206674996.241        -700.571          38.000  
J 3                                                                
G12                                                                
> 2020 11  5  4 48 30.0070000  0 14                     
G28  26376369.403   138608787.019       -1751.964          39.000  
G23  24316281.414   127782936.192        2146.402          44.000  
G15  22447618.317   117963098.341       -1167.039          48.000  
G24  22325301.988   117320321.826         752.514          47.000  
J 1  40833795.500   214583037.945        -218.500          44.000  
G10  27355445.104   143753824.226        2739.940          37.000  
G 5  25366035.156   133299426.651       -3838.059          42.000  
G20  23906873.752   125631468.390        2079.692          45.000  
J 2  38978433.585   204833125.079        -527.687          43.000  
G13  24128313.555   126795224.647       -2845.999          45.000  
G18  23786663.552   124999816.818       -1552.459          45.000  
J 7  39329075.519   206675696.892        -700.108          38.000  
J 3                                                                
G12                                                                
> 2020 11  5  4 48 31.0070000  0 14                     
G28  26376702.908   138610539.306       -1752.552          39.000  
G23  24315872.978   127780789.973        2146.058          44.000  
G15  22447840.421   117964265.215       -1167.032          47.000  
G24  22325158.790   117319569.408         752.112          47.000  
J 1  40833837.060   214583256.201        -218.207          44.000  
G10  27354923.641   143751084.018        2739.897          37.000  
G 5  25366765.513   133303264.797       -3838.396          42.000  
G20  23906478.031   125629388.650        2079.590          45.000  
J 2  38978533.940   204833652.672        -527.554          43.000  
G13  24128855.158   126798070.488       -2845.911          45.000  
G18  23786958.975   125001369.490       -1553.021          45.000  
J 7  39329208.853   206676397.094        -700.057          38.000  
J 3                                                                
G12                                                                
> 2020 11  5  4 48 32.0070000  0 14                     
G28  26377036.360   138612291.891       -1752.479          38.000  
G23  24315464.646   127778643.787        2146.103          44.000  
G15  22448062.486   117965432.184       -1167.125          47.000  
G24  22325015.714   117318817.394         751.852          46.000  
J 1  40833878.647   214583474.210        -217.932          44.000  
G10  27354402.243   143748343.575        2740.607          37.000  
G 5  25367495.889   133307102.980       -3838.310          41.000  
G20  23906082.370   125627309.036        2079.448          44.000  
J 2  38978634.373   204834180.171        -527.412          43.000  
G13  24129396.720   126800916.255       -2845.645          45.000  
G18  23787254.513   125002922.592       -1553.218          45.000  
J 7  39329342.068   206677097.115        -699.861          38.000  
J 3                                                                
G12                                                                
> 2020 11  5  4 48 33.0070000  0 14                     
G28  26377369.896   138614044.898       -1753.070          38.000  
G23  24315056.241   127776497.693        2146.156          44.000  
G15  22448284.608   117966599.301       -1167.046          48.000  
G24  22324872.670   117318065.838         751.397          47.000  
J 1  40833920.069   214583692.022        -217.645          44.000  
G10  27353880.683   143745602.968        2741.093          36.000  
G 5  25368226.197   133310941.275       -3838.194          41.000  
G20  23905686.667   125625229.594        2079.422          44.000  
J 2  38978734.677   204834707.628        -527.438          43.000  
G13  24129938.282   126803762.003       -2845.571          45.000  
G18  23787550.200   125004476.191       -1553.854          45.000  
J 7  39329475.241   206677797.006        -699.925          38.000  
J 3                                                                
G12                                                                
> 2020 11  5  4 48 34.0070000  0 14                     
G28  26377703.461   138615798.105       -1753.587          39.000  
G23  24314647.823   127774351.510        2146.164          44.000  
G15  22448506.678   117967766.385       -1167.202          47.000  
G24  22324729.645   117317314.517         751.184          47.000  
J 1  40833961.511   214583909.460        -217.438          44.000  
G10  27353359.154   143742862.035        2740.822          37.000  
G 5  25368956.530   133314779.502       -3838.089          41.000  
G20  23905290.965   125623150.145        2079.328          45.000  
J 2  38978834.941   204835234.842        -527.244          43.000  
G13  24130479.825   126806607.554       -2845.539          45.000  
G18  23787845.937   125006030.082       -1554.188          45.000  
J 7  39329608.317   206678496.544        -699.364          38.000  
J 3                                                                
G12                                                                
> 2020 11  5  4 48 35.0070000  0 14                     
G28  26378037.130   138617551.644       -1754.098          39.000  
G23  24314239.385   127772205.381        2145.907          44.000  
G15  22448728.758   117968933.566       -1167.412          47.000  
G24  22324586.684   117316563.606         750.582          47.000  
J 1  40834002.901   214584126.632        -217.090          44.000  
G10  27352837.585   143740120.854        2741.353          37.000  
G 5  25369686.928   133318617.792       -3838.437          41.000  
G20  23904895.297   125621070.816        2079.030          45.000  
J 2  38978935.196   204835761.953        -527.200          43.000  
G13  24131021.394   126809453.031       -2845.604          45.000  
G18  23788141.753   125007584.409       -1554.710          45.000  
J 7  39329741.354   206679195.926        -699.466          38.000  
J 3                                                                
G12                                                                
> 2020 11  5  4 48 36.0070000  0 14                     
G28  26378370.811   138619305.346       -1754.009          39.000  
G23  24313830.957   127770059.123        2146.365          44.000  
G15  22448950.776   117970100.681       -1167.071          47.000  
G24  22324443.879   117315812.908         750.486          47.000  
J 1  40834044.219   214584343.406        -216.553          44.000  
G10  27352315.889   143737379.291        2741.853          37.000  
G 5  25370417.297   133322455.981       -3838.236          41.000  
G20  23904499.596   125618991.437        2079.467          45.000  
J 2  38979035.479   204836288.812        -526.743          43.000  
G13  24131562.781   126812298.270       -2845.170          45.000  
G18  23788437.556   125009139.011       -1554.906          45.000  
J 7  39329874.381   206679894.918        -698.488          38.000  
J 3                                                                
G12                                                                
> 2020 11  5  4 48 37.0070000  0 14                     
G28  26378704.488   138621059.272       -1754.335          39.000  
