% program   : RTKPOST ver.2.4.3 b34
% inp file  : F:\OnlyINS\0609\COM3_210609_063340.obs
% inp file  : F:\OnlyINS\0609\060906.obs
% inp file  : F:\OnlyINS\0609\060906.nav
% obs start : 2021/06/09 06:34:19.2 GPST (week2161 282859.2s)
% obs end   : 2021/06/09 07:37:28.8 GPST (week2161 286648.8s)
% pos mode  : Kinematic
% freqs     : L1+2
% solution  : Forward
% elev mask : 15.0 deg
% dynamics  : on
% tidecorr  : on
% ionos opt : Broadcast
% tropo opt : Saastamoinen
% ephemeris : Broadcast
% navi sys  : GPS GLONASS Galileo QZSS BDS
% amb res   : Instantaneous
% amb glo   : ON
% val thres : 3.0
% antenna1  :                       ( 0.0000  0.0000  0.0000)
% antenna2  :                       ( 0.0000  0.0000  0.0000)
% ref pos   : -3961905.0100   3348993.7800   3698211.8200
%
% (x/y/z-ecef=WGS84,Q=1:fix,2:float,3:sbas,4:dgps,5:single,6:ppp,ns=# of satellites)
%  GPST              x-ecef(m)      y-ecef(m)      z-ecef(m)   Q  ns   sdx(m)   sdy(m)   sdz(m)  sdxy(m)  sdyz(m)  sdzx(m) age(s)  ratio
2161 282859.200  -3961862.5242   3348960.3334   3698252.7232   1  23   0.0065   0.0069   0.0043  -0.0052   0.0045  -0.0040   0.20    3.6
2161 282859.400  -3961862.5233   3348960.3341   3698252.7232   1  23   0.0065   0.0070   0.0043  -0.0052   0.0045  -0.0040   0.40    3.8
2161 282859.600  -3961862.5221   3348960.3327   3698252.7227   1  23   0.0065   0.0070   0.0043  -0.0052   0.0045  -0.0040   0.60    4.0
2161 282859.800  -3961862.5206   3348960.3312   3698252.7219   1  23   0.0065   0.0070   0.0044  -0.0052   0.0045  -0.0040   0.80    3.5
2161 282860.000  -3961862.5230   3348960.3339   3698252.7243   1  23   0.0065   0.0069   0.0043  -0.0051   0.0045  -0.0040  -0.00    3.5
2161 282860.200  -3961862.5219   3348960.3349   3698252.7248   1  23   0.0065   0.0069   0.0043  -0.0052   0.0045  -0.0040   0.20    3.3
2161 282860.400  -3961862.5225   3348960.3344   3698252.7250   1  23   0.0065   0.0070   0.0043  -0.0052   0.0045  -0.0040   0.40    3.5
2161 282860.600  -3961862.5227   3348960.3322   3698252.7235   1  23   0.0065   0.0070   0.0043  -0.0052   0.0045  -0.0040   0.60    3.2
2161 282860.800  -3961862.5218   3348960.3340   3698252.7244   1  23   0.0065   0.0070   0.0044  -0.0052   0.0045  -0.0040   0.80    3.3
2161 282861.000  -3961862.5227   3348960.3345   3698252.7246   1  23   0.0065   0.0069   0.0043  -0.0051   0.0045  -0.0040  -0.00    3.6
2161 282861.200  -3961862.5200   3348960.3337   3698252.7233   1  23   0.0065   0.0069   0.0043  -0.0052   0.0045  -0.0040   0.20    3.5
2161 282861.400  -3961862.5221   3348960.3348   3698252.7241   1  23   0.0065   0.0070   0.0043  -0.0052   0.0045  -0.0040   0.40    3.2
2161 282861.600  -3961862.5220   3348960.3334   3698252.7232   1  23   0.0065   0.0070   0.0043  -0.0052   0.0045  -0.0040   0.60    3.5
2161 282861.800  -3961862.5215   3348960.3331   3698252.7222   1  23   0.0065   0.0070   0.0044  -0.0052   0.0045  -0.0040   0.80    3.5
2161 282862.000  -3961862.5216   3348960.3333   3698252.7240   1  23   0.0065   0.0069   0.0043  -0.0051   0.0045  -0.0040  -0.00    3.4
2161 282862.200  -3961862.5194   3348960.3294   3698252.7216   1  23   0.0065   0.0069   0.0043  -0.0052   0.0045  -0.0040   0.20    3.2
2161 282862.400  -3961862.5230   3348960.3339   3698252.7241   1  23   0.0065   0.0070   0.0043  -0.0052   0.0045  -0.0040   0.40    3.8
2161 282862.600  -3961862.5213   3348960.3316   3698252.7232   1  23   0.0065   0.0070   0.0043  -0.0052   0.0045  -0.0040   0.60    3.4
2161 282862.800  -3961862.5230   3348960.3329   3698252.7240   1  23   0.0065   0.0070   0.0044  -0.0052   0.0045  -0.0040   0.80    3.3
2161 282863.000  -3961862.5214   3348960.3314   3698252.7223   1  23   0.0065   0.0069   0.0043  -0.0051   0.0045  -0.0040  -0.00    4.0
2161 282863.200  -3961862.5205   3348960.3330   3698252.7237   1  23   0.0065   0.0069   0.0043  -0.0052   0.0045  -0.0040   0.20    3.5
2161 282863.400  -3961862.5225   3348960.3315   3698252.7238   1  23   0.0065   0.0070   0.0043  -0.0052   0.0045  -0.0040   0.40    3.5
2161 282863.600  -3961862.5212   3348960.3304   3698252.7230   1  23   0.0065   0.0070   0.0043  -0.0052   0.0045  -0.0040   0.60    3.7
2161 282863.800  -3961862.5237   3348960.3333   3698252.7236   1  23   0.0065   0.0070   0.0044  -0.0052   0.0045  -0.0040   0.80    3.8
2161 282864.000  -3961862.5218   3348960.3313   3698252.7233   1  23   0.0065   0.0069   0.0043  -0.0051   0.0045  -0.0040  -0.00    4.0
2161 282864.200  -3961862.5204   3348960.3320   3698252.7237   1  23   0.0065   0.0069   0.0043  -0.0052   0.0045  -0.0040   0.20    3.7
2161 282864.400  -3961862.5216   3348960.3335   3698252.7237   1  23   0.0065   0.0070   0.0043  -0.0052   0.0045  -0.0040   0.40    4.2
2161 282864.600  -3961862.5226   3348960.3339   3698252.7236   1  23   0.0065   0.0070   0.0043  -0.0052   0.0045  -0.0040   0.60    4.0
2161 282864.800  -3961862.5212   3348960.3325   3698252.7237   1  23   0.0065   0.0070   0.0044  -0.0052   0.0045  -0.0040   0.80    4.0
2161 282865.000  -3961862.5201   3348960.3316   3698252.7229   1  23   0.0065   0.0069   0.0043  -0.0051   0.0045  -0.0040  -0.00    4.3
2161 282865.200  -3961862.5192   3348960.3316   3698252.7225   1  23   0.0065   0.0069   0.0043  -0.0051   0.0045  -0.0040   0.20    4.5
2161 282865.400  -3961862.5179   3348960.3316   3698252.7210   1  23   0.0065   0.0070   0.0043  -0.0052   0.0045  -0.0040   0.40    4.5
2161 282865.600  -3961862.5222   3348960.3330   3698252.7225   1  23   0.0065   0.0070   0.0043  -0.0052   0.0045  -0.0040   0.60    5.3
2161 282865.800  -3961862.5207   3348960.3328   3698252.7220   1  23   0.0065   0.0070   0.0044  -0.0052   0.0045  -0.0040   0.80    5.0
2161 282866.000  -3961862.5205   3348960.3336   3698252.7234   1  23   0.0065   0.0069   0.0043  -0.0051   0.0045  -0.0040  -0.00    4.4
2161 282866.200  -3961862.5220   3348960.3335   3698252.7242   1  23   0.0065   0.0069   0.0043  -0.0051   0.0045  -0.0040   0.20    4.7
2161 282866.400  -3961862.5203   3348960.3333   3698252.7229   1  23   0.0065   0.0070   0.0043  -0.0052   0.0045  -0.0040   0.40    4.3
2161 282866.600  -3961862.5207   3348960.3328   3698252.7227   1  23   0.0065   0.0070   0.0043  -0.0052   0.0045  -0.0040   0.60    4.4
2161 282866.800  -3961862.5192   3348960.3314   3698252.7220   1  23   0.0065   0.0070   0.0044  -0.0052   0.0045  -0.0040   0.80    4.4
2161 282867.000  -3961862.5199   3348960.3284   3698252.7213   1  23   0.0065   0.0069   0.0043  -0.0051   0.0045  -0.0040  -0.00    4.8
2161 282867.200  -3961862.5176   3348960.3292   3698252.7229   1  23   0.0065   0.0069   0.0043  -0.0051   0.0045  -0.0040   0.20    4.5
2161 282867.400  -3961862.5169   3348960.3291   3698252.7210   1  23   0.0065   0.0070   0.0043  -0.0052   0.0045  -0.0040   0.40    5.2
2161 282867.600  -3961862.5186   3348960.3303   3698252.7223   1  23   0.0065   0.0070   0.0043  -0.0052   0.0045  -0.0040   0.60    4.9
2161 282867.800  -3961862.5186   3348960.3320   3698252.7219   1  23   0.0065   0.0070   0.0044  -0.0052   0.0045  -0.0040   0.80    5.0
2161 282868.000  -3961862.5184   3348960.3290   3698252.7219   1  23   0.0065   0.0069   0.0043  -0.0051   0.0045  -0.0040  -0.00    5.4
2161 282868.200  -3961862.5183   3348960.3297   3698252.7214   1  23   0.0065   0.0069   0.0043  -0.0051   0.0045  -0.0040   0.20    5.2
2161 282868.400  -3961862.5189   3348960.3305   3698252.7209   1  23   0.0065   0.0070   0.0043  -0.0052   0.0045  -0.0040   0.40    4.9
2161 282868.600  -3961862.5178   3348960.3288   3698252.7201   1  23   0.0065   0.0070   0.0043  -0.0052   0.0045  -0.0040   0.60    4.4
2161 282868.800  -3961862.5216   3348960.3319   3698252.7219   1  23   0.0065   0.0070   0.0044  -0.0052   0.0045  -0.0040   0.80    4.3
2161 282869.000  -3961862.5180   3348960.3288   3698252.7208   1  23   0.0065   0.0069   0.0043  -0.0051   0.0045  -0.0040  -0.00    4.5
2161 282869.200  -3961862.5192   3348960.3306   3698252.7216   1  23   0.0065   0.0069   0.0043  -0.0051   0.0045  -0.0040   0.20    4.2
2161 282869.400  -3961862.5203   3348960.3293   3698252.7209   1  23   0.0065   0.0070   0.0043  -0.0052   0.0045  -0.0040   0.40    4.4
2161 282869.600  -3961862.5171   3348960.3290   3698252.7196   1  23   0.0065   0.0070   0.0043  -0.0052   0.0045  -0.0040   0.60    4.3
2161 282869.800  -3961862.5170   3348960.3291   3698252.7210   1  23   0.0065   0.0070   0.0044  -0.0052   0.0045  -0.0040   0.80    4.6
2161 282870.000  -3961862.5165   3348960.3281   3698252.7197   1  23   0.0065   0.0069   0.0043  -0.0051   0.0045  -0.0040  -0.00    4.4
2161 282870.200  -3961862.5157   3348960.3301   3698252.7210   1  23   0.0065   0.0069   0.0043  -0.0051   0.0045  -0.0040   0.20    4.1
2161 282870.400  -3961862.5184   3348960.3280   3698252.7202   1  23   0.0065   0.0070   0.0043  -0.0052   0.0045  -0.0040   0.40    4.6
2161 282870.600  -3961862.5180   3348960.3287   3698252.7215   1  23   0.0065   0.0070   0.0043  -0.0052   0.0045  -0.0040   0.60    5.3
2161 282870.800  -3961862.5168   3348960.3292   3698252.7213   1  23   0.0065   0.0070   0.0044  -0.0052   0.0045  -0.0040   0.80    4.7
2161 282871.000  -3961862.5182   3348960.3284   3698252.7197   1  23   0.0065   0.0069   0.0043  -0.0051   0.0045  -0.0040  -0.00    4.3
2161 282871.200  -3961862.5202   3348960.3289   3698252.7214   1  23   0.0065   0.0069   0.0043  -0.0051   0.0045  -0.0040   0.20    4.2
2161 282871.400  -3961862.5209   3348960.3290   3698252.7210   1  23   0.0065   0.0070   0.0043  -0.0052   0.0045  -0.0040   0.40    4.2
2161 282871.600  -3961862.5202   3348960.3302   3698252.7217   1  23   0.0065   0.0070   0.0043  -0.0052   0.0045  -0.0040   0.60    4.7
2161 282871.800  -3961862.5212   3348960.3301   3698252.7219   1  23   0.0065   0.0070   0.0044  -0.0052   0.0045  -0.0040   0.80    4.2
2161 282872.000  -3961862.5199   3348960.3288   3698252.7218   1  23   0.0065   0.0069   0.0043  -0.0051   0.0045  -0.0040  -0.00    4.8
2161 282872.200  -3961862.5190   3348960.3297   3698252.7227   1  23   0.0065   0.0069   0.0043  -0.0051   0.0045  -0.0040   0.20    4.5
2161 282872.400  -3961862.5191   3348960.3281   3698252.7208   1  23   0.0065   0.0070   0.0043  -0.0052   0.0045  -0.0040   0.40    5.2
2161 282872.600  -3961862.5198   3348960.3278   3698252.7209   1  23   0.0065   0.0070   0.0043  -0.0052   0.0045  -0.0040   0.60    4.3
2161 282872.800  -3961862.5209   3348960.3312   3698252.7229   1  23   0.0065   0.0070   0.0044  -0.0052   0.0045  -0.0040   0.80    4.8
2161 282873.000  -3961862.5187   3348960.3290   3698252.7208   1  23   0.0064   0.0069   0.0043  -0.0051   0.0045  -0.0040  -0.00    5.0
2161 282873.200  -3961862.5172   3348960.3293   3698252.7212   1  23   0.0065   0.0069   0.0043  -0.0051   0.0045  -0.0040   0.20    4.5
2161 282873.400  -3961862.5188   3348960.3300   3698252.7208   1  23   0.0065   0.0070   0.0043  -0.0052   0.0045  -0.0040   0.40    4.7
2161 282873.600  -3961862.5186   3348960.3299   3698252.7207   1  23   0.0065   0.0070   0.0043  -0.0052   0.0045  -0.0040   0.60    4.8
2161 282873.800  -3961862.5176   3348960.3286   3698252.7210   1  23   0.0065   0.0070   0.0044  -0.0052   0.0045  -0.0040   0.80    5.0
2161 282874.000  -3961862.5189   3348960.3258   3698252.7199   1  23   0.0064   0.0069   0.0043  -0.0051   0.0045  -0.0040  -0.00    4.6
2161 282874.200  -3961862.5181   3348960.3277   3698252.7206   1  23   0.0065   0.0069   0.0043  -0.0051   0.0045  -0.0040   0.20    4.2
2161 282874.400  -3961862.5158   3348960.3257   3698252.7199   1  23   0.0065   0.0070   0.0043  -0.0052   0.0045  -0.0040   0.40    4.1
2161 282874.600  -3961862.5183   3348960.3278   3698252.7205   1  23   0.0065   0.0070   0.0043  -0.0052   0.0045  -0.0040   0.60    4.2
2161 282874.800  -3961862.5154   3348960.3272   3698252.7206   1  23   0.0065   0.0070   0.0044  -0.0052   0.0045  -0.0040   0.80    4.0
2161 282875.000  -3961862.5205   3348960.3272   3698252.7208   1  23   0.0064   0.0069   0.0043  -0.0051   0.0045  -0.0040  -0.00    4.1
2161 282875.200  -3961862.5191   3348960.3287   3698252.7207   1  23   0.0065   0.0069   0.0043  -0.0051   0.0045  -0.0040   0.20    4.3
2161 282875.400  -3961862.5177   3348960.3267   3698252.7202   1  23   0.0065   0.0070   0.0043  -0.0052   0.0045  -0.0040   0.40    4.2
2161 282875.600  -3961862.5176   3348960.3266   3698252.7207   1  23   0.0065   0.0070   0.0043  -0.0052   0.0045  -0.0040   0.60    4.1
2161 282875.800  -3961862.5188   3348960.3276   3698252.7212   1  23   0.0065   0.0070   0.0044  -0.0052   0.0045  -0.0040   0.80    4.1
2161 282876.000  -3961862.5187   3348960.3275   3698252.7207   1  23   0.0064   0.0069   0.0043  -0.0051   0.0045  -0.0040  -0.00    4.3
2161 282876.200  -3961862.5184   3348960.3294   3698252.7207   1  23   0.0065   0.0069   0.0043  -0.0051   0.0045  -0.0040   0.20    4.2
2161 282876.400  -3961862.5221   3348960.3293   3698252.7202   1  23   0.0065   0.0070   0.0043  -0.0052   0.0045  -0.0040   0.40    4.2
2161 282876.600  -3961862.5203   3348960.3263   3698252.7201   1  23   0.0065   0.0070   0.0043  -0.0052   0.0045  -0.0040   0.60    4.2
2161 282876.800  -3961862.5192   3348960.3287   3698252.7209   1  23   0.0065   0.0070   0.0044  -0.0052   0.0045  -0.0040   0.80    3.9
2161 282877.000  -3961862.5171   3348960.3255   3698252.7203   1  23   0.0064   0.0069   0.0043  -0.0051   0.0045  -0.0040  -0.00    4.2
2161 282877.200  -3961862.5149   3348960.3261   3698252.7194   1  23   0.0065   0.0069   0.0043  -0.0051   0.0045  -0.0040   0.20    4.1
2161 282877.400  -3961862.5168   3348960.3274   3698252.7205   1  23   0.0065   0.0070   0.0043  -0.0052   0.0045  -0.0040   0.40    3.9
2161 282877.600  -3961862.5164   3348960.3263   3698252.7203   1  23   0.0065   0.0070   0.0043  -0.0052   0.0045  -0.0040   0.60    4.1
2161 282877.800  -3961862.5134   3348960.3239   3698252.7189   1  23   0.0065   0.0070   0.0044  -0.0052   0.0045  -0.0040   0.80    3.8
2161 282878.000  -3961862.5202   3348960.3266   3698252.7196   1  23   0.0064   0.0069   0.0043  -0.0051   0.0045  -0.0040  -0.00    3.5
2161 282878.200  -3961862.5167   3348960.3263   3698252.7194   1  23   0.0065   0.0069   0.0043  -0.0051   0.0045  -0.0040   0.20    3.9
2161 282878.400  -3961862.5195   3348960.3252   3698252.7194   1  23   0.0065   0.0070   0.0043  -0.0052   0.0045  -0.0040   0.40    3.9
2161 282878.600  -3961862.5161   3348960.3262   3698252.7201   1  23   0.0065   0.0070   0.0043  -0.0052   0.0045  -0.0040   0.60    4.1
2161 282878.800  -3961862.5165   3348960.3267   3698252.7195   1  23   0.0065   0.0070   0.0044  -0.0052   0.0045  -0.0040   0.80    3.7
2161 282879.000  -3961862.5197   3348960.3279   3698252.7215   1  23   0.0064   0.0069   0.0043  -0.0051   0.0045  -0.0040  -0.00    4.2
2161 282879.200  -3961862.5169   3348960.3253   3698252.7191   1  23   0.0065   0.0069   0.0043  -0.0051   0.0045  -0.0040   0.20    3.9
2161 282879.400  -3961862.5138   3348960.3245   3698252.7182   1  23   0.0065   0.0070   0.0043  -0.0052   0.0045  -0.0040   0.40    4.0
2161 282879.600  -3961862.5168   3348960.3266   3698252.7199   1  23   0.0065   0.0070   0.0043  -0.0052   0.0045  -0.0040   0.60    4.0
2161 282879.800  -3961862.5188   3348960.3285   3698252.7204   1  23   0.0065   0.0070   0.0044  -0.0052   0.0045  -0.0040   0.80    4.4
2161 282880.000  -3961862.5208   3348960.3286   3698252.7214   1  23   0.0064   0.0069   0.0043  -0.0051   0.0045  -0.0040  -0.00    4.0
2161 282880.200  -3961862.5171   3348960.3256   3698252.7204   1  23   0.0065   0.0069   0.0043  -0.0051   0.0045  -0.0040   0.20    4.1
2161 282880.400  -3961862.5182   3348960.3262   3698252.7207   1  23   0.0065   0.0070   0.0043  -0.0052   0.0045  -0.0040   0.40    4.0
2161 282880.600  -3961862.5165   3348960.3267   3698252.7209   1  23   0.0065   0.0070   0.0043  -0.0052   0.0045  -0.0040   0.60    4.8
2161 282880.800  -3961862.5160   3348960.3272   3698252.7208   1  23   0.0065   0.0070   0.0044  -0.0052   0.0045  -0.0040   0.80    4.3
2161 282881.000  -3961862.5186   3348960.3253   3698252.7210   1  23   0.0064   0.0069   0.0043  -0.0051   0.0045  -0.0040  -0.00    4.1
2161 282881.200  -3961862.5166   3348960.3246   3698252.7205   1  23   0.0065   0.0069   0.0043  -0.0051   0.0045  -0.0040   0.20    4.3
2161 282881.400  -3961862.5164   3348960.3238   3698252.7191   1  23   0.0065   0.0070   0.0043  -0.0052   0.0045  -0.0040   0.40    4.2
2161 282881.600  -3961862.5159   3348960.3216   3698252.7192   1  23   0.0065   0.0070   0.0043  -0.0052   0.0045  -0.0040   0.60    3.7
2161 282881.800  -3961862.5150   3348960.3236   3698252.7199   1  23   0.0065   0.0070   0.0044  -0.0052   0.0045  -0.0040   0.80    4.1
2161 282882.000  -3961862.5138   3348960.3233   3698252.7174   1  23   0.0064   0.0069   0.0043  -0.0051   0.0045  -0.0040  -0.00    3.9
2161 282882.200  -3961862.5134   3348960.3248   3698252.7175   1  23   0.0065   0.0069   0.0043  -0.0051   0.0045  -0.0040   0.20    4.3
2161 282882.400  -3961862.5160   3348960.3254   3698252.7177   1  23   0.0065   0.0070   0.0043  -0.0052   0.0045  -0.0040   0.40    4.3
2161 282882.600  -3961862.5164   3348960.3246   3698252.7184   1  23   0.0065   0.0070   0.0043  -0.0052   0.0045  -0.0040   0.60    4.3
2161 282882.800  -3961862.5165   3348960.3235   3698252.7177   1  23   0.0065   0.0070   0.0044  -0.0052   0.0045  -0.0040   0.80    4.4
2161 282883.000  -3961862.5175   3348960.3237   3698252.7195   1  23   0.0064   0.0069   0.0043  -0.0051   0.0045  -0.0040  -0.00    3.9
2161 282883.200  -3961862.5193   3348960.3250   3698252.7196   1  23   0.0065   0.0069   0.0043  -0.0051   0.0045  -0.0040   0.20    4.1
2161 282883.400  -3961862.5184   3348960.3253   3698252.7194   1  23   0.0065   0.0070   0.0043  -0.0052   0.0045  -0.0040   0.40    3.9
2161 282883.600  -3961862.5195   3348960.3251   3698252.7195   1  23   0.0065   0.0070   0.0043  -0.0052   0.0045  -0.0040   0.60    4.0
2161 282883.800  -3961862.5178   3348960.3246   3698252.7184   1  23   0.0065   0.0070   0.0044  -0.0052   0.0045  -0.0040   0.80    3.7
2161 282884.000  -3961862.5194   3348960.3272   3698252.7196   1  23   0.0064   0.0069   0.0043  -0.0051   0.0045  -0.0040  -0.00    4.2
2161 282884.200  -3961862.5168   3348960.3274   3698252.7207   1  23   0.0065   0.0069   0.0043  -0.0051   0.0045  -0.0040   0.20    3.9
2161 282884.400  -3961862.5195   3348960.3276   3698252.7212   1  23   0.0065   0.0070   0.0043  -0.0052   0.0045  -0.0040   0.40    3.8
2161 282884.600  -3961862.5188   3348960.3276   3698252.7203   1  23   0.0065   0.0070   0.0043  -0.0052   0.0045  -0.0040   0.60    3.7
2161 282884.800  -3961862.5185   3348960.3275   3698252.7203   1  23   0.0065   0.0070   0.0044  -0.0052   0.0045  -0.0040   0.80    3.7
2161 282885.000  -3961862.5190   3348960.3269   3698252.7193   1  23   0.0064   0.0069   0.0043  -0.0051   0.0045  -0.0040  -0.00    3.9
2161 282885.200  -3961862.5183   3348960.3278   3698252.7193   1  23   0.0064   0.0069   0.0043  -0.0051   0.0045  -0.0040   0.20    3.9
2161 282885.400  -3961862.5168   3348960.3264   3698252.7201   1  23   0.0065   0.0070   0.0043  -0.0052   0.0045  -0.0040   0.40    3.6
2161 282885.600  -3961862.5176   3348960.3261   3698252.7192   1  23   0.0065   0.0070   0.0043  -0.0052   0.0045  -0.0040   0.60    4.1
2161 282885.800  -3961862.5160   3348960.3263   3698252.7188   1  23   0.0065   0.0070   0.0044  -0.0052   0.0045  -0.0040   0.80    4.2
2161 282886.000  -3961862.5176   3348960.3248   3698252.7183   1  23   0.0064   0.0069   0.0043  -0.0051   0.0045  -0.0040  -0.00    4.2
2161 282886.200  -3961862.5173   3348960.3253   3698252.7179   1  23   0.0064   0.0069   0.0043  -0.0051   0.0045  -0.0040   0.20    4.0
2161 282886.400  -3961862.5171   3348960.3230   3698252.7174   1  23   0.0065   0.0070   0.0043  -0.0052   0.0045  -0.0040   0.40    4.0
2161 282886.600  -3961862.5192   3348960.3252   3698252.7183   1  23   0.0065   0.0070   0.0043  -0.0052   0.0045  -0.0040   0.60    3.8
2161 282886.800  -3961862.5156   3348960.3257   3698252.7174   1  23   0.0065   0.0070   0.0044  -0.0052   0.0045  -0.0040   0.80    3.6
2161 282887.000  -3961862.5179   3348960.3270   3698252.7205   1  23   0.0064   0.0069   0.0043  -0.0051   0.0045  -0.0040  -0.00    3.7
2161 282887.200  -3961862.5138   3348960.3220   3698252.7185   1  23   0.0064   0.0069   0.0043  -0.0051   0.0045  -0.0040   0.20    3.6
2161 282887.400  -3961862.5157   3348960.3256   3698252.7193   1  23   0.0065   0.0070   0.0043  -0.0052   0.0045  -0.0040   0.40    3.9
2161 282887.600  -3961862.5164   3348960.3263   3698252.7203   1  23   0.0065   0.0070   0.0043  -0.0052   0.0045  -0.0040   0.60    3.7
2161 282887.800  -3961862.5135   3348960.3238   3698252.7189   1  23   0.0065   0.0070   0.0044  -0.0052   0.0045  -0.0040   0.80    3.8
2161 282888.000  -3961862.5157   3348960.3237   3698252.7192   1  23   0.0064   0.0069   0.0043  -0.0051   0.0045  -0.0040  -0.00    3.8
2161 282888.200  -3961862.5160   3348960.3237   3698252.7185   1  23   0.0064   0.0069   0.0043  -0.0051   0.0045  -0.0040   0.20    3.5
2161 282888.400  -3961862.5164   3348960.3233   3698252.7187   1  23   0.0065   0.0070   0.0043  -0.0052   0.0045  -0.0040   0.40    3.4
2161 282888.600  -3961862.5156   3348960.3250   3698252.7186   1  23   0.0065   0.0070   0.0043  -0.0052   0.0045  -0.0040   0.60    4.0
2161 282888.800  -3961862.5166   3348960.3236   3698252.7177   1  23   0.0065   0.0070   0.0044  -0.0052   0.0045  -0.0040   0.80    3.7
2161 282889.000  -3961862.5149   3348960.3255   3698252.7186   1  23   0.0064   0.0069   0.0043  -0.0051   0.0045  -0.0040  -0.00    3.5
2161 282889.200  -3961862.5166   3348960.3281   3698252.7198   1  23   0.0064   0.0069   0.0043  -0.0051   0.0045  -0.0040   0.20    3.7
2161 282889.400  -3961862.5153   3348960.3278   3698252.7187   1  23   0.0065   0.0070   0.0043  -0.0052   0.0045  -0.0040   0.40    3.7
2161 282889.600  -3961862.5153   3348960.3275   3698252.7184   1  23   0.0065   0.0070   0.0043  -0.0052   0.0045  -0.0040   0.60    3.8
2161 282889.800  -3961862.5135   3348960.3284   3698252.7183   1  23   0.0065   0.0070   0.0044  -0.0052   0.0045  -0.0040   0.80    3.7
2161 282890.000  -3961862.5153   3348960.3269   3698252.7202   1  23   0.0064   0.0069   0.0043  -0.0051   0.0045  -0.0040  -0.00    3.7
2161 282890.200  -3961862.5143   3348960.3262   3698252.7189   1  23   0.0064   0.0069   0.0043  -0.0051   0.0045  -0.0040   0.20    4.0
2161 282890.400  -3961862.5159   3348960.3279   3698252.7199   1  23   0.0065   0.0070   0.0043  -0.0052   0.0045  -0.0040   0.40    3.8
2161 282890.600  -3961862.5154   3348960.3254   3698252.7188   1  23   0.0065   0.0070   0.0043  -0.0052   0.0045  -0.0040   0.60    3.8
2161 282890.800  -3961862.5139   3348960.3256   3698252.7175   1  23   0.0065   0.0070   0.0044  -0.0052   0.0045  -0.0040   0.80    3.8
2161 282891.000  -3961862.5127   3348960.3213   3698252.7180   1  23   0.0064   0.0069   0.0043  -0.0051   0.0045  -0.0040  -0.00    3.4
2161 282891.200  -3961862.5139   3348960.3237   3698252.7186   1  23   0.0064   0.0069   0.0043  -0.0051   0.0045  -0.0040   0.20    3.4
2161 282891.400  -3961862.5110   3348960.3227   3698252.7160   1  23   0.0065   0.0070   0.0043  -0.0052   0.0045  -0.0040   0.40    3.6
2161 282891.600  -3961862.5123   3348960.3237   3698252.7182   1  23   0.0065   0.0070   0.0043  -0.0052   0.0045  -0.0040   0.60    3.4
2161 282891.800  -3961862.5130   3348960.3243   3698252.7182   1  23   0.0065   0.0070   0.0044  -0.0052   0.0045  -0.0040   0.80    3.5
2161 282892.000  -3961862.5133   3348960.3257   3698252.7184   1  23   0.0064   0.0069   0.0043  -0.0051   0.0045  -0.0040  -0.00    3.6
2161 282892.200  -3961862.5128   3348960.3228   3698252.7171   1  23   0.0064   0.0069   0.0043  -0.0051   0.0045  -0.0040   0.20    3.5
2161 282892.400  -3961862.5139   3348960.3245   3698252.7178   1  23   0.0065   0.0070   0.0043  -0.0051   0.0045  -0.0040   0.40    3.3
2161 282892.600  -3961862.5138   3348960.3246   3698252.7177   1  23   0.0065   0.0070   0.0043  -0.0052   0.0045  -0.0040   0.60    3.4
2161 282892.800  -3961862.5153   3348960.3244   3698252.7186   1  23   0.0065   0.0070   0.0044  -0.0052   0.0045  -0.0040   0.80    3.5
2161 282893.000  -3961862.5153   3348960.3269   3698252.7190   1  23   0.0064   0.0069   0.0043  -0.0051   0.0045  -0.0040  -0.00    3.7
2161 282893.200  -3961862.5146   3348960.3252   3698252.7190   1  23   0.0064   0.0069   0.0043  -0.0051   0.0045  -0.0040   0.20    3.5
2161 282893.400  -3961862.5143   3348960.3247   3698252.7180   1  23   0.0065   0.0070   0.0043  -0.0051   0.0045  -0.0040   0.40    3.6
2161 282893.600  -3961862.5126   3348960.3237   3698252.7187   1  23   0.0065   0.0070   0.0043  -0.0052   0.0045  -0.0040   0.60    3.6
2161 282893.800  -3961862.5122   3348960.3250   3698252.7181   1  23   0.0065   0.0070   0.0044  -0.0052   0.0045  -0.0040   0.80    3.6
2161 282894.000  -3961862.5133   3348960.3268   3698252.7181   1  23   0.0064   0.0069   0.0043  -0.0051   0.0045  -0.0040  -0.00    3.9
2161 282894.200  -3961862.5145   3348960.3260   3698252.7189   1  23   0.0064   0.0069   0.0043  -0.0051   0.0045  -0.0040   0.20    3.8
2161 282894.400  -3961862.5133   3348960.3268   3698252.7190   1  23   0.0065   0.0070   0.0043  -0.0051   0.0045  -0.0040   0.40    4.0
2161 282894.600  -3961862.5109   3348960.3241   3698252.7177   1  23   0.0065   0.0070   0.0043  -0.0052   0.0045  -0.0040   0.60    3.8
2161 282894.800  -3961862.5132   3348960.3238   3698252.7176   1  23   0.0065   0.0070   0.0044  -0.0052   0.0045  -0.0040   0.80    3.7
2161 282895.000  -3961862.5117   3348960.3273   3698252.7194   1  23   0.0064   0.0069   0.0043  -0.0051   0.0045  -0.0040  -0.00    3.2
2161 282895.200  -3961862.5114   3348960.3263   3698252.7189   1  23   0.0064   0.0069   0.0043  -0.0051   0.0045  -0.0040   0.20    3.3
2161 282895.400  -3961862.5139   3348960.3261   3698252.7188   1  23   0.0065   0.0070   0.0043  -0.0051   0.0045  -0.0040   0.40    3.4
2161 282895.600  -3961862.5154   3348960.3275   3698252.7202   1  23   0.0065   0.0070   0.0043  -0.0052   0.0045  -0.0040   0.60    3.5
2161 282895.800  -3961862.5159   3348960.3287   3698252.7206   1  23   0.0065   0.0070   0.0044  -0.0052   0.0045  -0.0040   0.80    3.6
2161 282896.000  -3961862.5155   3348960.3263   3698252.7199   1  23   0.0064   0.0069   0.0043  -0.0051   0.0045  -0.0040  -0.00    3.5
2161 282896.200  -3961862.5123   3348960.3244   3698252.7178   1  23   0.0064   0.0069   0.0043  -0.0051   0.0045  -0.0040   0.20    3.7
2161 282896.400  -3961862.5153   3348960.3250   3698252.7193   1  23   0.0065   0.0070   0.0043  -0.0051   0.0045  -0.0040   0.40    3.9
2161 282896.600  -3961862.5145   3348960.3252   3698252.7188   1  23   0.0065   0.0070   0.0043  -0.0052   0.0045  -0.0040   0.60    4.0
2161 282896.800  -3961862.5140   3348960.3251   3698252.7187   1  23   0.0065   0.0070   0.0044  -0.0052   0.0045  -0.0040   0.80    3.9
2161 282897.000  -3961862.5157   3348960.3298   3698252.7205   1  23   0.0064   0.0069   0.0043  -0.0051   0.0045  -0.0040  -0.00    3.7
2161 282897.200  -3961862.5135   3348960.3285   3698252.7193   1  23   0.0064   0.0069   0.0043  -0.0051   0.0045  -0.0040   0.20    3.9
2161 282897.400  -3961862.5127   3348960.3265   3698252.7195   1  23   0.0065   0.0070   0.0043  -0.0051   0.0045  -0.0040   0.40    3.4
2161 282897.600  -3961862.5139   3348960.3278   3698252.7196   1  23   0.0065   0.0070   0.0043  -0.0052   0.0045  -0.0040   0.60    3.3
2161 282897.800  -3961862.5124   3348960.3279   3698252.7207   1  23   0.0065   0.0070   0.0044  -0.0052   0.0045  -0.0040   0.80    3.1
2161 282898.000  -3961862.5148   3348960.3276   3698252.7206   1  23   0.0064   0.0069   0.0043  -0.0051   0.0045  -0.0040  -0.00    3.3
2161 282898.200  -3961862.5096   3348960.3248   3698252.7193   1  23   0.0064   0.0069   0.0043  -0.0051   0.0045  -0.0040   0.20    3.2
2161 282898.400  -3961862.5153   3348960.3258   3698252.7178   1  23   0.0065   0.0070   0.0043  -0.0051   0.0045  -0.0040   0.40    3.4
2161 282898.600  -3961862.5133   3348960.3272   3698252.7176   1  23   0.0065   0.0070   0.0043  -0.0052   0.0045  -0.0040   0.60    3.5
2161 282898.800  -3961862.5118   3348960.3264   3698252.7187   1  23   0.0065   0.0070   0.0044  -0.0052   0.0045  -0.0040   0.80    3.3
2161 282899.000  -3961862.5115   3348960.3268   3698252.7191   1  23   0.0064   0.0069   0.0043  -0.0051   0.0044  -0.0040  -0.00    3.3
2161 282899.200  -3961862.5104   3348960.3242   3698252.7179   1  23   0.0064   0.0069   0.0043  -0.0051   0.0045  -0.0040   0.20    3.3
2161 282899.400  -3961862.5097   3348960.3245   3698252.7195   1  23   0.0065   0.0070   0.0043  -0.0051   0.0045  -0.0040   0.40    3.2
2161 282899.600  -3961862.5129   3348960.3265   3698252.7185   1  23   0.0065   0.0070   0.0043  -0.0052   0.0045  -0.0040   0.60    3.5
2161 282899.800  -3961862.5108   3348960.3249   3698252.7195   1  23   0.0065   0.0070   0.0044  -0.0052   0.0045  -0.0040   0.80    3.4
2161 282900.000  -3961862.5118   3348960.3252   3698252.7190   1  23   0.0064   0.0069   0.0043  -0.0051   0.0044  -0.0040  -0.00    3.6
2161 282900.200  -3961862.5126   3348960.3254   3698252.7200   1  23   0.0064   0.0069   0.0043  -0.0051   0.0045  -0.0040   0.20    3.4
2161 282900.400  -3961862.5136   3348960.3253   3698252.7175   1  23   0.0065   0.0070   0.0043  -0.0051   0.0045  -0.0040   0.40    3.9
2161 282900.600  -3961862.5125   3348960.3224   3698252.7155   1  23   0.0065   0.0070   0.0043  -0.0052   0.0045  -0.0040   0.60    3.6
2161 282900.800  -3961862.5134   3348960.3262   3698252.7202   1  23   0.0065   0.0070   0.0044  -0.0052   0.0045  -0.0040   0.80    3.8
2161 282901.000  -3961862.5102   3348960.3230   3698252.7155   1  23   0.0064   0.0069   0.0043  -0.0051   0.0044  -0.0040  -0.00    3.7
2161 282901.200  -3961862.5102   3348960.3240   3698252.7160   1  23   0.0064   0.0069   0.0043  -0.0051   0.0045  -0.0040   0.20    3.3
2161 282901.400  -3961862.5106   3348960.3240   3698252.7159   1  23   0.0065   0.0070   0.0043  -0.0051   0.0045  -0.0040   0.40    3.7
2161 282901.600  -3961862.5074   3348960.3228   3698252.7154   1  23   0.0065   0.0070   0.0043  -0.0052   0.0045  -0.0040   0.60    3.6
2161 282901.800  -3961862.5068   3348960.3213   3698252.7157   1  23   0.0065   0.0070   0.0044  -0.0052   0.0045  -0.0040   0.80    3.6
2161 282902.000  -3961862.5102   3348960.3250   3698252.7174   1  23   0.0064   0.0069   0.0043  -0.0051   0.0044  -0.0040  -0.00    3.7
2161 282902.200  -3961862.5106   3348960.3238   3698252.7163   1  23   0.0064   0.0069   0.0043  -0.0051   0.0045  -0.0040   0.20    3.4
2161 282902.400  -3961862.5118   3348960.3241   3698252.7172   1  23   0.0065   0.0069   0.0043  -0.0051   0.0045  -0.0040   0.40    3.5
2161 282902.600  -3961862.5124   3348960.3266   3698252.7186   1  23   0.0065   0.0070   0.0043  -0.0052   0.0045  -0.0040   0.60    3.2
2161 282902.800  -3961862.5119   3348960.3251   3698252.7170   1  23   0.0065   0.0070   0.0044  -0.0052   0.0045  -0.0040   0.80    3.4
2161 282903.000  -3961862.5124   3348960.3267   3698252.7180   1  23   0.0064   0.0069   0.0043  -0.0051   0.0044  -0.0040  -0.00    3.5
2161 282903.200  -3961862.5105   3348960.3247   3698252.7178   1  23   0.0064   0.0069   0.0043  -0.0051   0.0045  -0.0040   0.20    3.6
2161 282903.400  -3961862.5123   3348960.3263   3698252.7177   1  23   0.0065   0.0069   0.0043  -0.0051   0.0045  -0.0040   0.40    3.3
2161 282903.600  -3961862.5102   3348960.3237   3698252.7162   1  23   0.0065   0.0070   0.0043  -0.0052   0.0045  -0.0040   0.60    3.4
2161 282903.800  -3961862.5115   3348960.3238   3698252.7173   1  23   0.0065   0.0070   0.0044  -0.0052   0.0045  -0.0040   0.80    3.1
2161 282904.000  -3961862.5125   3348960.3237   3698252.7163   1  23   0.0064   0.0069   0.0043  -0.0051   0.0044  -0.0040  -0.00    3.2
2161 282904.200  -3961862.5122   3348960.3239   3698252.7154   1  23   0.0064   0.0069   0.0043  -0.0051   0.0045  -0.0040   0.20    3.3
2161 282904.400  -3961864.2140   3348960.0617   3698252.8217   2  23   0.7383   0.7985   0.5052  -0.5662   0.4920  -0.4428   0.40    3.0
2161 282904.600  -3961862.5104   3348960.3250   3698252.7169   1  23   0.0065   0.0070   0.0043  -0.0052   0.0045  -0.0040   0.60    3.2
2161 282904.800  -3961862.5094   3348960.3242   3698252.7146   1  23   0.0067   0.0071   0.0045  -0.0054   0.0047  -0.0042   0.80    3.4
2161 282905.000  -3961862.5112   3348960.3222   3698252.7159   1  23   0.0066   0.0071   0.0045  -0.0053   0.0046  -0.0042  -0.00    3.6
2161 282905.200  -3961862.5117   3348960.3236   3698252.7157   1  23   0.0064   0.0069   0.0043  -0.0051   0.0045  -0.0040   0.20    3.5
2161 282905.400  -3961862.5132   3348960.3244   3698252.7169   1  23   0.0065   0.0069   0.0043  -0.0051   0.0045  -0.0040   0.40    3.5
2161 282905.600  -3961862.5115   3348960.3233   3698252.7160   1  23   0.0065   0.0070   0.0043  -0.0052   0.0045  -0.0040   0.60    3.6
2161 282905.800  -3961862.5125   3348960.3240   3698252.7158   1  23   0.0065   0.0070   0.0044  -0.0052   0.0045  -0.0040   0.80    3.8
2161 282906.000  -3961862.5128   3348960.3249   3698252.7171   1  23   0.0064   0.0069   0.0043  -0.0051   0.0044  -0.0040  -0.00    3.3
2161 282906.200  -3961862.5114   3348960.3257   3698252.7183   1  23   0.0064   0.0069   0.0043  -0.0051   0.0045  -0.0040   0.20    3.4
2161 282906.400  -3961862.5129   3348960.3251   3698252.7171   1  23   0.0066   0.0071   0.0045  -0.0053   0.0046  -0.0042   0.40    3.3
2161 282906.600  -3961862.5085   3348960.3222   3698252.7159   1  23   0.0066   0.0071   0.0045  -0.0053   0.0047  -0.0042   0.60    3.2
2161 282906.800  -3961862.5096   3348960.3253   3698252.7176   1  23   0.0067   0.0071   0.0045  -0.0054   0.0047  -0.0042   0.80    3.3
2161 282907.000  -3961864.1097   3348959.9333   3698252.7931   2  23   0.7676   0.8229   0.5420  -0.6019   0.5299  -0.4870  -0.00    2.9
2161 282907.200  -3961864.0710   3348959.8905   3698252.7779   2  23   0.7676   0.8229   0.5422  -0.6020   0.5300  -0.4872   0.20    2.9
2161 282907.400  -3961864.0610   3348959.8601   3698252.7664   2  23   0.7679   0.8231   0.5424  -0.6022   0.5303  -0.4875   0.40    2.7
2161 282907.600  -3961864.0636   3348959.8545   3698252.7474   2  23   0.7681   0.8233   0.5425  -0.6025   0.5305  -0.4877   0.60    2.4
2161 282907.800  -3961864.0686   3348959.9066   3698252.7413   2  23   0.7682   0.8235   0.5426  -0.6027   0.5306  -0.4878   0.80    2.5
2161 282908.000  -3961864.1332   3348959.9775   3698252.7564   2  23   0.7682   0.8235   0.5426  -0.6027   0.5307  -0.4878  -0.00    2.8
2161 282908.200  -3961864.1847   3348960.0147   3698252.7769   2  23   0.7682   0.8235   0.5426  -0.6027   0.5306  -0.4878   0.20    2.7
2161 282908.400  -3961864.1765   3348960.0366   3698252.7820   2  23   0.7682   0.8235   0.5426  -0.6027   0.5306  -0.4878   0.40    2.6
2161 282908.600  -3961864.1738   3348960.0593   3698252.8004   2  23   0.7682   0.8235   0.5426  -0.6027   0.5307  -0.4878   0.60    2.8
2161 282908.800  -3961864.1927   3348960.1040   3698252.8361   2  23   0.7682   0.8235   0.5426  -0.6027   0.5307  -0.4878   0.80    2.8
2161 282909.000  -3961864.1915   3348960.1054   3698252.8184   2  23   0.7682   0.8235   0.5426  -0.6027   0.5307  -0.4878  -0.00    2.9
2161 282909.200  -3961864.1985   3348960.0964   3698252.8190   2  23   0.7682   0.8235   0.5426  -0.6027   0.5307  -0.4878   0.20    2.9
2161 282909.400  -3961864.1993   3348960.0659   3698252.8204   2  23   0.7682   0.8235   0.5426  -0.6027   0.5307  -0.4878   0.40    2.8
2161 282909.600  -3961864.1806   3348960.0294   3698252.8155   2  23   0.7682   0.8235   0.5426  -0.6027   0.5307  -0.4878   0.60    2.7
2161 282909.800  -3961864.1542   3348959.9847   3698252.7967   2  23   0.7682   0.8235   0.5426  -0.6027   0.5307  -0.4878   0.80    2.7
2161 282910.000  -3961864.1802   3348959.9702   3698252.7974   2  23   0.7681   0.8235   0.5426  -0.6026   0.5307  -0.4878  -0.00    2.9
2161 282910.200  -3961864.1895   3348959.9408   3698252.7996   2  23   0.7681   0.8235   0.5426  -0.6026   0.5306  -0.4878   0.20    2.8
2161 282910.400  -3961862.5091   3348960.3239   3698252.7168   1  23   0.0066   0.0071   0.0045  -0.0053   0.0046  -0.0042   0.40    3.0
2161 282910.600  -3961862.5096   3348960.3260   3698252.7165   1  23   0.0066   0.0071   0.0045  -0.0053   0.0047  -0.0042   0.60    3.2
2161 282910.800  -3961864.1775   3348959.8874   3698252.7818   2  23   0.7681   0.8235   0.5426  -0.6026   0.5306  -0.4878   0.80    3.0
2161 282911.000  -3961864.1699   3348959.9749   3698252.7900   2  23   0.7681   0.8235   0.5426  -0.6026   0.5306  -0.4878  -0.00    2.8
2161 282911.200  -3961864.2043   3348960.0418   3698252.8315   2  23   0.7681   0.8235   0.5426  -0.6026   0.5306  -0.4878   0.20    2.6
2161 282911.400  -3961864.2198   3348960.0962   3698252.8562   2  23   0.7681   0.8235   0.5426  -0.6026   0.5306  -0.4878   0.40    2.2
2161 282911.600  -3961864.2287   3348960.1013   3698252.8520   2  23   0.7681   0.8234   0.5426  -0.6026   0.5306  -0.4878   0.60    2.5
2161 282911.800  -3961864.2062   3348960.1081   3698252.8442   2  23   0.7681   0.8234   0.5426  -0.6025   0.5306  -0.4878   0.80    2.5
2161 282912.000  -3961864.1293   3348960.0950   3698252.8372   2  23   0.7681   0.8234   0.5426  -0.6025   0.5306  -0.4878  -0.00    2.3
2161 282912.200  -3961864.0487   3348960.0602   3698252.8186   2  23   0.7680   0.8234   0.5426  -0.6025   0.5306  -0.4878   0.20    2.4
2161 282912.400  -3961864.0013   3348960.0256   3698252.8211   2  23   0.7680   0.8234   0.5426  -0.6025   0.5306  -0.4878   0.40    2.2
2161 282912.600  -3961864.0325   3348960.0087   3698252.8332   2  23   0.7680   0.8234   0.5426  -0.6025   0.5306  -0.4878   0.60    2.4
2161 282912.800  -3961864.0576   3348960.0204   3698252.8439   2  23   0.7680   0.8234   0.5426  -0.6025   0.5306  -0.4877   0.80    2.2
2161 282913.000  -3961864.0799   3348960.0574   3698252.8680   2  23   0.7680   0.8234   0.5426  -0.6025   0.5306  -0.4877  -0.00    2.6
2161 282913.200  -3961864.0894   3348960.0486   3698252.8620   2  23   0.7680   0.8234   0.5426  -0.6025   0.5306  -0.4877   0.20    2.4
2161 282913.400  -3961864.1031   3348960.0368   3698252.8474   2  23   0.7680   0.8234   0.5426  -0.6024   0.5306  -0.4877   0.40    2.4
2161 282913.600  -3961864.1352   3348960.0505   3698252.8645   2  23   0.7680   0.8234   0.5426  -0.6024   0.5306  -0.4877   0.60    2.8
2161 282913.800  -3961864.1569   3348960.0738   3698252.9002   2  23   0.7680   0.8234   0.5426  -0.6024   0.5306  -0.4877   0.80    2.8
2161 282914.000  -3961864.1627   3348960.1210   3698252.9149   2  23   0.7680   0.8234   0.5426  -0.6024   0.5306  -0.4877  -0.00    2.6
2161 282914.200  -3961864.1241   3348960.1251   3698252.9110   2  23   0.7680   0.8234   0.5426  -0.6024   0.5306  -0.4877   0.20    2.9
2161 282914.400  -3961864.1124   3348960.1289   3698252.9083   2  23   0.7679   0.8234   0.5426  -0.6024   0.5306  -0.4877   0.40    2.6
2161 282914.600  -3961864.1028   3348960.1374   3698252.8917   2  23   0.7679   0.8234   0.5426  -0.6024   0.5306  -0.4877   0.60    2.4
2161 282914.800  -3961864.0697   3348960.0869   3698252.8562   2  23   0.7679   0.8234   0.5426  -0.6024   0.5306  -0.4877   0.80    2.5
2161 282915.000  -3961864.0557   3348960.0367   3698252.8012   2  23   0.7679   0.8234   0.5426  -0.6023   0.5305  -0.4877  -0.00    2.5
2161 282915.200  -3961863.9880   3348960.0040   3698252.7550   2  23   0.7679   0.8233   0.5426  -0.6023   0.5305  -0.4877   0.20    2.7
2161 282915.400  -3961863.9325   3348959.9675   3698252.7237   2  23   0.7679   0.8233   0.5426  -0.6023   0.5305  -0.4877   0.40    2.6
2161 282915.600  -3961863.8903   3348959.9342   3698252.7140   2  23   0.7679   0.8233   0.5426  -0.6023   0.5305  -0.4877   0.60    2.6
2161 282915.800  -3961863.8792   3348959.9230   3698252.7067   2  23   0.7679   0.8233   0.5426  -0.6023   0.5305  -0.4877   0.80    2.4
2161 282916.000  -3961863.9276   3348959.8694   3698252.6998   2  23   0.7679   0.8233   0.5426  -0.6023   0.5305  -0.4877  -0.00    2.2
2161 282916.200  -3961863.9319   3348959.8348   3698252.6858   2  23   0.7679   0.8233   0.5426  -0.6023   0.5305  -0.4877   0.20    2.4
2161 282916.400  -3961863.9606   3348959.8754   3698252.7234   2  23   0.7679   0.8233   0.5426  -0.6023   0.5305  -0.4877   0.40    2.3
2161 282916.600  -3961863.9764   3348959.8987   3698252.7358   2  23   0.7678   0.8233   0.5426  -0.6022   0.5305  -0.4877   0.60    2.4
2161 282916.800  -3961863.9572   3348959.9275   3698252.7375   2  23   0.7678   0.8233   0.5426  -0.6022   0.5305  -0.4877   0.80    2.1
2161 282917.000  -3961863.8651   3348959.9788   3698252.7230   2  23   0.7678   0.8233   0.5426  -0.6022   0.5305  -0.4877  -0.00    2.4
2161 282917.200  -3961863.8099   3348960.0192   3698252.6842   2  23   0.7678   0.8233   0.5426  -0.6022   0.5305  -0.4877   0.20    2.4
2161 282917.400  -3961863.8073   3348960.0294   3698252.6902   2  23   0.7678   0.8233   0.5426  -0.6022   0.5305  -0.4877   0.40    2.5
2161 282917.600  -3961863.8469   3348960.0620   3698252.7155   2  23   0.7678   0.8233   0.5426  -0.6022   0.5305  -0.4876   0.60    2.3
2161 282917.800  -3961863.9003   3348960.0998   3698252.7463   2  23   0.7678   0.8233   0.5426  -0.6022   0.5305  -0.4876   0.80    2.1
2161 282918.000  -3961863.9428   3348960.1342   3698252.7781   2  23   0.7678   0.8233   0.5426  -0.6022   0.5305  -0.4876  -0.00    2.2
2161 282918.200  -3961863.9942   3348960.1503   3698252.8236   2  23   0.7678   0.8233   0.5426  -0.6022   0.5305  -0.4876   0.20    1.9
2161 282918.400  -3961864.0187   3348960.1571   3698252.8454   2  23   0.7678   0.8233   0.5426  -0.6021   0.5305  -0.4876   0.40    1.7
2161 282918.600  -3961864.0369   3348960.1761   3698252.8477   2  23   0.7678   0.8233   0.5426  -0.6021   0.5305  -0.4876   0.60    1.8
2161 282918.800  -3961864.0259   3348960.1703   3698252.8430   2  23   0.7677   0.8232   0.5426  -0.6021   0.5305  -0.4876   0.80    1.8
2161 282919.000  -3961864.0934   3348960.1741   3698252.8201   2  23   0.7677   0.8232   0.5426  -0.6021   0.5305  -0.4876  -0.00    1.8
2161 282919.200  -3961864.1282   3348960.1795   3698252.8399   2  23   0.7677   0.8232   0.5426  -0.6021   0.5305  -0.4876   0.20    1.9
2161 282919.400  -3961864.1253   3348960.2045   3698252.8445   2  23   0.7677   0.8232   0.5426  -0.6021   0.5305  -0.4876   0.40    1.8
2161 282919.600  -3961864.1329   3348960.2321   3698252.8770   2  23   0.7677   0.8232   0.5426  -0.6021   0.5305  -0.4876   0.60    1.7
2161 282919.800  -3961864.1460   3348960.2410   3698252.8740   2  23   0.7677   0.8232   0.5426  -0.6021   0.5304  -0.4876   0.80    1.8
2161 282920.000  -3961864.1670   3348960.1880   3698252.8649   2  23   0.7677   0.8232   0.5426  -0.6020   0.5304  -0.4876  -0.00    1.7
2161 282920.200  -3961864.1516   3348960.1413   3698252.8650   2  23   0.7677   0.8232   0.5426  -0.6020   0.5304  -0.4876   0.20    1.7
2161 282920.400  -3961864.1390   3348960.1232   3698252.8789   2  23   0.7677   0.8232   0.5426  -0.6020   0.5304  -0.4876   0.40    1.7
2161 282920.600  -3961864.1170   3348960.1129   3698252.8872   2  23   0.7677   0.8232   0.5426  -0.6020   0.5304  -0.4876   0.60    1.8
2161 282920.800  -3961864.1074   3348960.1154   3698252.8758   2  23   0.7677   0.8232   0.5426  -0.6020   0.5304  -0.4876   0.80    1.7
2161 282921.000  -3961864.1261   3348960.2011   3698252.8998   2  23   0.7676   0.8232   0.5426  -0.6020   0.5304  -0.4876  -0.00    1.7
2161 282921.200  -3961864.1504   3348960.2230   3698252.8973   2  23   0.7676   0.8232   0.5426  -0.6020   0.5304  -0.4876   0.20    1.6
2161 282921.400  -3961864.1096   3348960.2052   3698252.8655   2  23   0.7676   0.8232   0.5426  -0.6020   0.5304  -0.4876   0.40    1.6
2161 282921.600  -3961864.1085   3348960.1968   3698252.8643   2  23   0.7676   0.8232   0.5426  -0.6019   0.5304  -0.4876   0.60    1.4
2161 282921.800  -3961864.1152   3348960.2111   3698252.8726   2  23   0.7676   0.8232   0.5426  -0.6019   0.5304  -0.4876   0.80    1.4
2161 282922.000  -3961864.0729   3348960.1945   3698252.8623   2  23   0.7676   0.8232   0.5426  -0.6019   0.5304  -0.4876  -0.00    1.7
2161 282922.200  -3961864.0323   3348960.1886   3698252.8558   2  23   0.7676   0.8232   0.5426  -0.6019   0.5304  -0.4876   0.20    1.5
2161 282922.400  -3961863.9872   3348960.1802   3698252.8392   2  23   0.7676   0.8231   0.5426  -0.6019   0.5304  -0.4875   0.40    1.7
2161 282922.600  -3961863.9508   3348960.2028   3698252.8370   2  23   0.7676   0.8231   0.5426  -0.6019   0.5304  -0.4875   0.60    1.8
2161 282922.800  -3961863.9384   3348960.1978   3698252.8550   2  23   0.7676   0.8231   0.5426  -0.6019   0.5304  -0.4875   0.80    1.8
2161 282923.000  -3961863.9049   3348960.1528   3698252.8476   2  23   0.7676   0.8231   0.5426  -0.6019   0.5304  -0.4875  -0.00    1.9
2161 282923.200  -3961863.8697   3348960.1235   3698252.8334   2  23   0.7675   0.8231   0.5426  -0.6018   0.5304  -0.4875   0.20    1.8
2161 282923.400  -3961863.8427   3348960.1407   3698252.8258   2  23   0.7675   0.8231   0.5426  -0.6018   0.5304  -0.4875   0.40    1.7
2161 282923.600  -3961863.8433   3348960.1762   3698252.8461   2  23   0.7675   0.8231   0.5426  -0.6018   0.5304  -0.4875   0.60    1.6
2161 282923.800  -3961863.7622   3348960.1197   3698252.7836   2  23   0.7455   0.8054   0.5133  -0.5755   0.5014  -0.4534   0.80    1.6
2161 282924.000  -3961863.7019   3348960.1735   3698252.7712   2  23   0.7393   0.7999   0.5066  -0.5676   0.4936  -0.4445  -0.00    1.6
2161 282924.200  -3961863.7126   3348960.2167   3698252.7938   2  23   0.7382   0.7988   0.5059  -0.5661   0.4924  -0.4433   0.20    1.6
2161 282924.400  -3961863.7036   3348960.2283   3698252.8021   2  23   0.7382   0.7987   0.5058  -0.5660   0.4924  -0.4433   0.40    1.5
2161 282924.600  -3961863.6868   3348960.2200   3698252.8040   2  23   0.7381   0.7986   0.5057  -0.5659   0.4923  -0.4431   0.60    1.5
2161 282924.800  -3961863.6545   3348960.2150   3698252.7877   2  23   0.7378   0.7984   0.5055  -0.5656   0.4920  -0.4428   0.80    1.4
2161 282925.000  -3961863.6145   3348960.2228   3698252.7813   2  23   0.7376   0.7982   0.5053  -0.5653   0.4918  -0.4426  -0.00    1.5
2161 282925.200  -3961863.5992   3348960.2267   3698252.7942   2  23   0.7375   0.7981   0.5053  -0.5651   0.4917  -0.4425   0.20    1.5
2161 282925.400  -3961863.5882   3348960.1923   3698252.7776   2  23   0.7375   0.7981   0.5053  -0.5651   0.4917  -0.4425   0.40    1.4
2161 282925.600  -3961863.6151   3348960.1940   3698252.7615   2  23   0.7375   0.7980   0.5053  -0.5651   0.4917  -0.4425   0.60    1.4
2161 282925.800  -3961863.6403   3348960.1846   3698252.7244   2  23   0.7375   0.7980   0.5053  -0.5651   0.4917  -0.4425   0.80    1.4
2161 282926.000  -3961863.6533   3348960.2179   3698252.6818   2  23   0.7374   0.7980   0.5053  -0.5650   0.4917  -0.4425  -0.00    1.4
2161 282926.200  -3961863.6531   3348960.2385   3698252.6769   2  23   0.7374   0.7980   0.5053  -0.5650   0.4916  -0.4424   0.20    1.6
2161 282926.400  -3961863.6210   3348960.2485   3698252.6634   2  23   0.7374   0.7980   0.5053  -0.5650   0.4916  -0.4424   0.40    1.6
2161 282926.600  -3961863.5704   3348960.2425   3698252.6669   2  23   0.7374   0.7980   0.5053  -0.5650   0.4916  -0.4424   0.60    1.6
2161 282926.800  -3961863.5310   3348960.2283   3698252.6880   2  23   0.7374   0.7980   0.5053  -0.5650   0.4916  -0.4424   0.80    1.5
2161 282927.000  -3961863.5297   3348960.2380   3698252.7323   2  23   0.7374   0.7980   0.5053  -0.5649   0.4916  -0.4424  -0.00    1.5
2161 282927.200  -3961863.5133   3348960.2205   3698252.7455   2  23   0.7579   0.8144   0.5331  -0.5896   0.5189  -0.4748   0.20    1.6
2161 282927.400  -3961863.4865   3348960.1878   3698252.7153   2  23   0.7651   0.8207   0.5409  -0.5985   0.5278  -0.4849   0.40    1.7
2161 282927.600  -3961863.4865   3348960.2027   3698252.7180   2  23   0.7665   0.8222   0.5420  -0.6005   0.5295  -0.4866   0.60    1.6
2161 282927.800  -3961863.5147   3348960.2576   3698252.7304   2  23   0.7666   0.8223   0.5421  -0.6006   0.5295  -0.4866   0.80    1.6
2161 282928.000  -3961863.5608   3348960.2249   3698252.7559   2  23   0.7448   0.8047   0.5129  -0.5745   0.5007  -0.4527  -0.00    1.5
2161 282928.200  -3961863.5837   3348960.1868   3698252.7497   2  23   0.7387   0.7994   0.5064  -0.5668   0.4931  -0.4441   0.20    1.6
2161 282928.400  -3961863.5969   3348960.1955   3698252.7516   2  23   0.7379   0.7984   0.5058  -0.5656   0.4922  -0.4431   0.40    1.5
2161 282928.600  -3961863.5901   3348960.2132   3698252.7637   2  23   0.7379   0.7985   0.5058  -0.5657   0.4923  -0.4432   0.60    1.5
2161 282928.800  -3961863.5969   3348960.2343   3698252.7781   2  23   0.7378   0.7985   0.5057  -0.5656   0.4921  -0.4430   0.80    1.7
2161 282929.000  -3961863.6321   3348960.2527   3698252.7938   2  23   0.7376   0.7983   0.5055  -0.5653   0.4919  -0.4427  -0.00    1.3
2161 282929.200  -3961863.6851   3348960.2863   3698252.8169   2  23   0.7374   0.7981   0.5053  -0.5650   0.4917  -0.4425   0.20    1.3
2161 282929.400  -3961863.7477   3348960.3148   3698252.8674   2  23   0.7578   0.8143   0.5331  -0.5895   0.5189  -0.4748   0.40    1.4
2161 282929.600  -3961863.7693   3348960.3496   3698252.9242   2  23   0.7650   0.8206   0.5410  -0.5984   0.5278  -0.4848   0.60    1.3
2161 282929.800  -3961863.7588   3348960.3508   3698252.9305   2  23   0.7665   0.8222   0.5421  -0.6004   0.5295  -0.4866   0.80    1.3
2161 282930.000  -3961863.7717   3348960.3541   3698252.9004   2  23   0.7665   0.8223   0.5421  -0.6005   0.5295  -0.4866  -0.00    1.3
2161 282930.200  -3961863.7625   3348960.3728   3698252.8751   2  23   0.7666   0.8223   0.5422  -0.6006   0.5296  -0.4867   0.20    1.3
2161 282930.400  -3961863.7619   3348960.3875   3698252.8589   2  23   0.7668   0.8225   0.5424  -0.6008   0.5298  -0.4870   0.40    1.1
2161 282930.600  -3961863.7376   3348960.4082   3698252.8628   2  23   0.7670   0.8227   0.5426  -0.6011   0.5300  -0.4872   0.60    1.0
2161 282930.800  -3961863.7466   3348960.4432   3698252.8828   2  23   0.7671   0.8228   0.5426  -0.6013   0.5302  -0.4873   0.80    1.1
2161 282931.000  -3961863.7340   3348960.4613   3698252.8485   2  23   0.7671   0.8229   0.5426  -0.6013   0.5302  -0.4873  -0.00    1.1
2161 282931.200  -3961863.7447   3348960.4737   3698252.8487   2  23   0.7671   0.8229   0.5426  -0.6013   0.5302  -0.4873   0.20    1.0
2161 282931.400  -3961863.7507   3348960.4668   3698252.8438   2  23   0.7671   0.8229   0.5427  -0.6013   0.5302  -0.4873   0.40    1.1
2161 282931.600  -3961863.8076   3348960.4724   3698252.8653   2  23   0.7671   0.8229   0.5427  -0.6013   0.5302  -0.4873   0.60    1.0
2161 282931.800  -3961863.8246   3348960.4508   3698252.8501   2  23   0.7671   0.8229   0.5427  -0.6013   0.5302  -0.4873   0.80    1.1
2161 282932.000  -3961863.8295   3348960.4494   3698252.8997   2  23   0.7671   0.8229   0.5427  -0.6013   0.5302  -0.4873  -0.00    1.1
2161 282932.200  -3961863.8225   3348960.4384   3698252.9404   2  23   0.7671   0.8229   0.5427  -0.6013   0.5302  -0.4873   0.20    1.1
2161 282932.400  -3961863.7949   3348960.4261   3698252.9359   2  23   0.7671   0.8229   0.5427  -0.6013   0.5302  -0.4873   0.40    1.0
2161 282932.600  -3961863.7475   3348960.4399   3698252.9330   2  23   0.7671   0.8229   0.5427  -0.6013   0.5302  -0.4873   0.60    1.0
2161 282932.800  -3961863.7120   3348960.4505   3698252.9224   2  23   0.7671   0.8229   0.5427  -0.6013   0.5302  -0.4873   0.80    1.0
2161 282933.000  -3961863.6886   3348960.4330   3698252.8798   2  23   0.7671   0.8229   0.5427  -0.6013   0.5302  -0.4873  -0.00    1.0
2161 282933.200  -3961863.6412   3348960.3809   3698252.8204   2  23   0.7671   0.8228   0.5427  -0.6012   0.5302  -0.4873   0.20    1.1
2161 282933.400  -3961863.6024   3348960.3790   3698252.7992   2  23   0.7671   0.8228   0.5427  -0.6012   0.5302  -0.4873   0.40    1.0
2161 282933.600  -3961863.5734   3348960.3473   3698252.7861   2  23   0.7671   0.8228   0.5427  -0.6012   0.5302  -0.4873   0.60    1.0
2161 282933.800  -3961863.5921   3348960.3544   3698252.7784   2  23   0.7671   0.8228   0.5427  -0.6012   0.5302  -0.4873   0.80    1.1
2161 282934.000  -3961863.5747   3348960.3288   3698252.7592   2  23   0.7671   0.8228   0.5427  -0.6012   0.5302  -0.4873  -0.00    1.1
2161 282934.200  -3961863.6039   3348960.3199   3698252.7896   2  23   0.7671   0.8228   0.5427  -0.6012   0.5302  -0.4873   0.20    1.1
2161 282934.400  -3961863.6462   3348960.3585   3698252.8123   2  23   0.7670   0.8228   0.5427  -0.6012   0.5301  -0.4873   0.40    1.1
2161 282934.600  -3961863.6454   3348960.3691   3698252.8057   2  23   0.7670   0.8228   0.5427  -0.6012   0.5301  -0.4873   0.60    1.2
2161 282934.800  -3961863.6235   3348960.3638   3698252.7791   2  23   0.7670   0.8228   0.5427  -0.6011   0.5301  -0.4873   0.80    1.2
2161 282935.000  -3961863.5525   3348960.3587   3698252.7390   2  23   0.7670   0.8228   0.5427  -0.6011   0.5301  -0.4873  -0.00    1.1
2161 282935.200  -3961863.4644   3348960.3245   3698252.7175   2  23   0.7670   0.8228   0.5427  -0.6011   0.5301  -0.4873   0.20    1.2
2161 282935.400  -3961863.4614   3348960.3214   3698252.7220   2  23   0.7670   0.8228   0.5427  -0.6011   0.5301  -0.4873   0.40    1.2
2161 282935.600  -3961863.4949   3348960.3435   3698252.7113   2  23   0.7670   0.8228   0.5427  -0.6011   0.5301  -0.4873   0.60    1.1
2161 282935.800  -3961863.5215   3348960.3431   3698252.6970   2  23   0.7670   0.8228   0.5427  -0.6011   0.5301  -0.4873   0.80    1.0
2161 282936.000  -3961863.6159   3348960.3417   3698252.7038   2  23   0.7670   0.8228   0.5427  -0.6011   0.5301  -0.4873  -0.00    1.1
2161 282936.200  -3961863.6881   3348960.3545   3698252.7230   2  23   0.7670   0.8228   0.5427  -0.6011   0.5301  -0.4873   0.20    1.2
2161 282936.400  -3961863.7021   3348960.3626   3698252.7513   2  23   0.7670   0.8228   0.5427  -0.6011   0.5301  -0.4873   0.40    1.1
2161 282936.600  -3961863.6752   3348960.3525   3698252.7492   2  23   0.7669   0.8228   0.5427  -0.6010   0.5301  -0.4873   0.60    1.1
2161 282936.800  -3961863.6625   3348960.3987   3698252.7539   2  23   0.7669   0.8228   0.5427  -0.6010   0.5301  -0.4873   0.80    1.2
2161 282937.000  -3961863.6812   3348960.5461   3698252.7761   2  23   0.7669   0.8227   0.5427  -0.6010   0.5301  -0.4873  -0.00    1.2
2161 282937.200  -3961863.6818   3348960.6114   3698252.7794   2  23   0.7669   0.8227   0.5427  -0.6010   0.5301  -0.4872   0.20    1.1
2161 282937.400  -3961863.7015   3348960.6117   3698252.7796   2  23   0.7669   0.8227   0.5427  -0.6010   0.5301  -0.4872   0.40    1.1
2161 282937.600  -3961863.7399   3348960.5943   3698252.7755   2  23   0.7669   0.8227   0.5427  -0.6010   0.5301  -0.4872   0.60    1.2
2161 282937.800  -3961863.8112   3348960.6322   3698252.7969   2  23   0.7669   0.8227   0.5427  -0.6010   0.5301  -0.4872   0.80    1.1
2161 282938.000  -3961863.8077   3348960.6225   3698252.7378   2  23   0.7669   0.8227   0.5427  -0.6010   0.5301  -0.4872  -0.00    1.2
2161 282938.200  -3961863.7651   3348960.5921   3698252.6873   2  23   0.7669   0.8227   0.5427  -0.6009   0.5301  -0.4872   0.20    1.2
2161 282938.400  -3961863.7473   3348960.5957   3698252.6846   2  23   0.7669   0.8227   0.5427  -0.6009   0.5301  -0.4872   0.40    1.3
2161 282938.600  -3961863.7426   3348960.6060   3698252.6873   2  23   0.7669   0.8227   0.5427  -0.6009   0.5301  -0.4872   0.60    1.3
2161 282938.800  -3961863.7336   3348960.6413   3698252.6910   2  23   0.7668   0.8227   0.5427  -0.6009   0.5301  -0.4872   0.80    1.4
2161 282939.000  -3961863.7042   3348960.6577   3698252.6753   2  23   0.7668   0.8227   0.5427  -0.6009   0.5301  -0.4872  -0.00    1.2
2161 282939.200  -3961863.6836   3348960.6881   3698252.6752   2  23   0.7668   0.8227   0.5427  -0.6009   0.5301  -0.4872   0.20    1.3
2161 282939.400  -3961863.4995   3348960.6301   3698252.6561   2  23   0.7405   0.8166   0.5403  -0.5841   0.5252  -0.4766   0.40    1.3
2161 282939.600  -3961863.4022   3348960.5833   3698252.6486   2  23   0.7338   0.8145   0.5393  -0.5791   0.5234  -0.4732   0.60    1.3
2161 282939.800  -3961863.3666   3348960.5699   3698252.6427   2  23   0.7329   0.8140   0.5390  -0.5782   0.5229  -0.4726   0.80    1.4
2161 282940.000  -3961863.3108   3348960.5080   3698252.6304   2  23   0.7329   0.8140   0.5390  -0.5782   0.5229  -0.4726  -0.00    1.4
2161 282940.200  -3961863.3110   3348960.4674   3698252.6061   2  23   0.7327   0.8140   0.5390  -0.5782   0.5229  -0.4725   0.20    1.5
2161 282940.400  -3961863.3224   3348960.4534   3698252.6013   2  23   0.7325   0.8139   0.5390  -0.5780   0.5228  -0.4724   0.40    1.5
2161 282940.600  -3961863.3348   3348960.4394   3698252.5996   2  23   0.7323   0.8138   0.5389  -0.5778   0.5227  -0.4723   0.60    1.6
2161 282940.800  -3961863.3530   3348960.4719   3698252.6207   2  23   0.7323   0.8138   0.5389  -0.5777   0.5227  -0.4722   0.80    1.6
2161 282941.000  -3961863.3408   3348960.4389   3698252.6070   2  23   0.7323   0.8137   0.5389  -0.5777   0.5227  -0.4722  -0.00    1.8
2161 282941.200  -3961863.3154   3348960.4000   3698252.5884   2  23   0.7322   0.8137   0.5389  -0.5777   0.5226  -0.4722   0.20    1.7
2161 282941.400  -3961863.3301   3348960.4335   3698252.5819   2  23   0.7322   0.8137   0.5389  -0.5777   0.5226  -0.4722   0.40    1.7
2161 282941.600  -3961863.3528   3348960.4891   3698252.5872   2  23   0.7322   0.8137   0.5389  -0.5777   0.5226  -0.4722   0.60    1.8
2161 282941.800  -3961863.3833   3348960.5281   3698252.6014   2  23   0.7322   0.8137   0.5389  -0.5777   0.5226  -0.4722   0.80    1.6
2161 282942.000  -3961863.3999   3348960.5765   3698252.6245   2  23   0.7322   0.8137   0.5389  -0.5776   0.5226  -0.4722  -0.00    1.6
2161 282942.200  -3961863.4076   3348960.5956   3698252.6327   2  23   0.7322   0.8137   0.5389  -0.5776   0.5226  -0.4722   0.20    1.5
2161 282942.400  -3961863.4501   3348960.6307   3698252.6563   2  23   0.7322   0.8137   0.5389  -0.5776   0.5226  -0.4722   0.40    1.8
2161 282942.600  -3961863.5007   3348960.6540   3698252.6686   2  23   0.7322   0.8137   0.5389  -0.5776   0.5226  -0.4722   0.60    1.6
2161 282942.800  -3961863.5217   3348960.6699   3698252.6828   2  23   0.7322   0.8137   0.5389  -0.5776   0.5226  -0.4722   0.80    1.6
2161 282943.000  -3961863.5349   3348960.6810   3698252.7222   2  23   0.7322   0.8137   0.5389  -0.5776   0.5226  -0.4722  -0.00    1.8
2161 282943.200  -3961863.5452   3348960.6861   3698252.7188   2  23   0.7322   0.8137   0.5389  -0.5776   0.5226  -0.4722   0.20    1.6
2161 282943.400  -3961863.5156   3348960.6650   3698252.6679   2  23   0.7321   0.8137   0.5389  -0.5776   0.5226  -0.4722   0.40    1.8
2161 282943.600  -3961863.4969   3348960.6769   3698252.6547   2  23   0.7321   0.8137   0.5389  -0.5776   0.5226  -0.4722   0.60    1.7
2161 282943.800  -3961863.5077   3348960.7065   3698252.6635   2  23   0.7321   0.8137   0.5389  -0.5775   0.5226  -0.4721   0.80    1.8
2161 282944.000  -3961863.5427   3348960.7115   3698252.6548   2  23   0.7321   0.8137   0.5389  -0.5775   0.5226  -0.4721  -0.00    1.7
2161 282944.200  -3961863.5677   3348960.7056   3698252.6733   2  23   0.7321   0.8137   0.5389  -0.5775   0.5226  -0.4721   0.20    1.8
2161 282944.400  -3961863.5882   3348960.7311   3698252.7143   2  23   0.7321   0.8136   0.5389  -0.5775   0.5226  -0.4721   0.40    1.9
2161 282944.600  -3961863.6449   3348960.7995   3698252.7551   2  23   0.7321   0.8136   0.5389  -0.5775   0.5226  -0.4721   0.60    1.8
2161 282944.800  -3961863.6783   3348960.8624   3698252.7826   2  23   0.7321   0.8136   0.5389  -0.5775   0.5226  -0.4721   0.80    2.0
2161 282945.000  -3961863.6653   3348960.8899   3698252.7673   2  23   0.7321   0.8136   0.5389  -0.5775   0.5226  -0.4721  -0.00    1.9
