% program   : RTKPOST ver.2.4.3 p01
% inp file  : F:\OnlyINS\0609\COM6_210609_065021.obs
% inp file  : F:\OnlyINS\0609\060906.obs
% inp file  : F:\OnlyINS\0609\060906.nav
% obs start : 2021/06/09 06:50:44.4 GPST (week2161 283844.4s)
% obs end   : 2021/06/09 07:38:00.0 GPST (week2161 286680.0s)
% pos mode  : kinematic
% freqs     : L1+L2
% solution  : forward
% elev mask : 15.0 deg
% dynamics  : off
% tidecorr  : off
% ionos opt : broadcast
% tropo opt : saastamoinen
% ephemeris : broadcast
% navi sys  : gps galileo qzss beidou
% amb res   : instantaneous
% val thres : 3.0
% antenna1  :                       ( 0.0000  0.0000  0.0000)
% antenna2  :                       ( 0.0000  0.0000  0.0000)
% ref pos   : -3961905.0100   3348993.7800   3698211.8200
%
% (x/y/z-ecef=WGS84,Q=1:fix,2:float,3:sbas,4:dgps,5:single,6:ppp,ns=# of satellites)
%  GPST              x-ecef(m)      y-ecef(m)      z-ecef(m)   Q  ns   sdx(m)   sdy(m)   sdz(m)  sdxy(m)  sdyz(m)  sdzx(m) age(s)  ratio
2161 283844.400  -3961766.0457   3349008.9169   3698311.0182   1  27   0.0052   0.0051   0.0046  -0.0042   0.0036  -0.0037   0.40    4.3
2161 283844.600  -3961766.0454   3349008.9160   3698311.0182   1  27   0.0052   0.0051   0.0046  -0.0042   0.0036  -0.0037   0.60    4.3
2161 283844.800  -3961766.0488   3349008.9192   3698311.0202   1  26   0.0054   0.0055   0.0047  -0.0045   0.0037  -0.0038   0.80    5.2
2161 283845.000  -3961766.0475   3349008.9182   3698311.0199   1  27   0.0052   0.0051   0.0046  -0.0042   0.0035  -0.0037   0.00    4.9
2161 283845.200  -3961766.0481   3349008.9195   3698311.0201   1  27   0.0052   0.0051   0.0046  -0.0042   0.0035  -0.0037   0.20    3.9
2161 283845.400  -3961766.0464   3349008.9193   3698311.0196   1  27   0.0052   0.0051   0.0046  -0.0042   0.0036  -0.0037   0.40    4.1
2161 283845.600  -3961766.0480   3349008.9182   3698311.0200   1  27   0.0052   0.0051   0.0046  -0.0042   0.0036  -0.0037   0.60    5.1
2161 283845.800  -3961766.0465   3349008.9164   3698311.0179   1  27   0.0052   0.0051   0.0047  -0.0042   0.0036  -0.0037   0.80    4.2
2161 283846.000  -3961766.0452   3349008.9177   3698311.0178   1  27   0.0052   0.0051   0.0046  -0.0042   0.0035  -0.0037   0.00    4.7
2161 283846.200  -3961766.0456   3349008.9181   3698311.0185   1  27   0.0052   0.0051   0.0046  -0.0042   0.0035  -0.0037   0.20    4.7
2161 283846.400  -3961766.0451   3349008.9176   3698311.0188   1  27   0.0052   0.0051   0.0046  -0.0042   0.0036  -0.0037   0.40    5.0
2161 283846.600  -3961766.0459   3349008.9181   3698311.0185   1  27   0.0052   0.0051   0.0046  -0.0042   0.0036  -0.0037   0.60    5.0
2161 283846.800  -3961766.0465   3349008.9180   3698311.0190   1  27   0.0052   0.0051   0.0047  -0.0042   0.0036  -0.0037   0.80    5.0
2161 283847.000  -3961766.0459   3349008.9175   3698311.0200   1  27   0.0052   0.0051   0.0046  -0.0042   0.0035  -0.0037   0.00    4.5
2161 283847.200  -3961766.0470   3349008.9175   3698311.0194   1  27   0.0052   0.0051   0.0046  -0.0042   0.0035  -0.0037   0.20    5.5
2161 283847.400  -3961766.0455   3349008.9173   3698311.0201   1  27   0.0052   0.0051   0.0046  -0.0042   0.0036  -0.0037   0.40    4.8
2161 283847.600  -3961766.0473   3349008.9180   3698311.0196   1  27   0.0052   0.0051   0.0046  -0.0042   0.0036  -0.0037   0.60    4.9
2161 283847.800  -3961766.0442   3349008.9185   3698311.0189   1  27   0.0052   0.0051   0.0047  -0.0042   0.0036  -0.0037   0.80    5.7
2161 283848.000  -3961766.0453   3349008.9161   3698311.0189   1  27   0.0052   0.0051   0.0046  -0.0042   0.0035  -0.0037   0.00    5.2
2161 283848.200  -3961766.0449   3349008.9157   3698311.0192   1  27   0.0052   0.0051   0.0046  -0.0042   0.0035  -0.0037   0.20    5.6
2161 283848.400  -3961766.0446   3349008.9150   3698311.0173   1  26   0.0053   0.0054   0.0047  -0.0045   0.0037  -0.0038   0.40    5.5
2161 283848.600  -3961766.0449   3349008.9158   3698311.0170   1  26   0.0053   0.0054   0.0047  -0.0045   0.0037  -0.0038   0.60    5.7
2161 283848.800  -3961766.0458   3349008.9171   3698311.0180   1  26   0.0054   0.0055   0.0047  -0.0045   0.0037  -0.0038   0.80    5.6
2161 283849.000  -3961766.0458   3349008.9200   3698311.0222   1  26   0.0053   0.0054   0.0046  -0.0044   0.0037  -0.0038   0.00    5.1
2161 283849.200  -3961766.0450   3349008.9185   3698311.0198   1  26   0.0053   0.0054   0.0046  -0.0044   0.0037  -0.0038   0.20    5.7
2161 283849.400  -3961766.0452   3349008.9178   3698311.0204   1  27   0.0052   0.0051   0.0046  -0.0042   0.0036  -0.0037   0.40    4.9
2161 283849.600  -3961766.0432   3349008.9163   3698311.0183   1  27   0.0052   0.0051   0.0046  -0.0042   0.0036  -0.0037   0.60    4.8
2161 283849.800  -3961766.0441   3349008.9171   3698311.0182   1  27   0.0052   0.0051   0.0047  -0.0042   0.0036  -0.0037   0.80    5.9
2161 283850.000  -3961766.0479   3349008.9189   3698311.0204   1  26   0.0053   0.0054   0.0046  -0.0044   0.0037  -0.0038   0.00    4.6
2161 283850.200  -3961766.0473   3349008.9180   3698311.0200   1  26   0.0053   0.0054   0.0046  -0.0044   0.0037  -0.0038   0.20    4.1
2161 283850.400  -3961766.0486   3349008.9199   3698311.0198   1  26   0.0053   0.0054   0.0047  -0.0045   0.0037  -0.0038   0.40    5.3
2161 283850.600  -3961766.0467   3349008.9180   3698311.0185   1  26   0.0053   0.0054   0.0047  -0.0045   0.0037  -0.0038   0.60    5.3
2161 283850.800  -3961766.0470   3349008.9181   3698311.0195   1  26   0.0054   0.0055   0.0047  -0.0045   0.0037  -0.0038   0.80    5.6
2161 283851.000  -3961766.0456   3349008.9191   3698311.0206   1  26   0.0053   0.0054   0.0046  -0.0044   0.0037  -0.0038   0.00    5.4
2161 283851.200  -3961766.0466   3349008.9175   3698311.0197   1  26   0.0053   0.0054   0.0046  -0.0044   0.0037  -0.0038   0.20    5.5
2161 283851.400  -3961766.0454   3349008.9171   3698311.0191   1  26   0.0053   0.0054   0.0047  -0.0045   0.0037  -0.0038   0.40    5.6
2161 283851.600  -3961766.0470   3349008.9190   3698311.0197   1  26   0.0053   0.0054   0.0047  -0.0045   0.0037  -0.0038   0.60    5.6
2161 283851.800  -3961766.0477   3349008.9192   3698311.0204   1  26   0.0054   0.0055   0.0047  -0.0045   0.0037  -0.0038   0.80    5.0
2161 283852.000  -3961766.0452   3349008.9192   3698311.0194   1  26   0.0053   0.0054   0.0046  -0.0044   0.0037  -0.0038   0.00    5.7
2161 283852.200  -3961766.0448   3349008.9196   3698311.0181   1  26   0.0053   0.0054   0.0046  -0.0044   0.0037  -0.0038   0.20    5.7
2161 283852.400  -3961766.0450   3349008.9185   3698311.0187   1  26   0.0053   0.0054   0.0047  -0.0045   0.0037  -0.0038   0.40    5.9
2161 283852.600  -3961766.0457   3349008.9209   3698311.0207   1  26   0.0053   0.0054   0.0047  -0.0045   0.0037  -0.0038   0.60    5.4
2161 283852.800  -3961766.0453   3349008.9190   3698311.0188   1  26   0.0054   0.0055   0.0047  -0.0045   0.0037  -0.0038   0.80    5.9
2161 283853.000  -3961766.0458   3349008.9174   3698311.0191   1  26   0.0053   0.0054   0.0046  -0.0044   0.0037  -0.0038   0.00    5.4
2161 283853.200  -3961766.0443   3349008.9183   3698311.0185   1  26   0.0053   0.0054   0.0046  -0.0044   0.0037  -0.0038   0.20    6.6
2161 283853.400  -3961766.0446   3349008.9168   3698311.0193   1  26   0.0053   0.0054   0.0047  -0.0045   0.0037  -0.0038   0.40    5.5
2161 283853.600  -3961766.0445   3349008.9177   3698311.0189   1  26   0.0053   0.0054   0.0047  -0.0045   0.0037  -0.0038   0.60    5.7
2161 283853.800  -3961766.0452   3349008.9181   3698311.0176   1  26   0.0054   0.0055   0.0047  -0.0045   0.0037  -0.0038   0.80    6.3
2161 283854.000  -3961766.0460   3349008.9178   3698311.0171   1  26   0.0053   0.0054   0.0046  -0.0044   0.0037  -0.0038   0.00    6.2
2161 283854.200  -3961766.0453   3349008.9174   3698311.0159   1  26   0.0053   0.0054   0.0046  -0.0044   0.0037  -0.0038   0.20    5.6
2161 283854.400  -3961766.0438   3349008.9175   3698311.0163   1  26   0.0053   0.0054   0.0047  -0.0045   0.0037  -0.0038   0.40    5.5
2161 283854.600  -3961766.0447   3349008.9183   3698311.0150   1  26   0.0053   0.0054   0.0047  -0.0045   0.0037  -0.0038   0.60    5.2
2161 283854.800  -3961766.0443   3349008.9180   3698311.0146   1  26   0.0054   0.0055   0.0047  -0.0045   0.0037  -0.0038   0.80    5.9
2161 283855.000  -3961766.0447   3349008.9196   3698311.0179   1  26   0.0053   0.0054   0.0046  -0.0044   0.0037  -0.0038   0.00    5.0
2161 283855.200  -3961766.0437   3349008.9193   3698311.0158   1  26   0.0053   0.0054   0.0046  -0.0044   0.0037  -0.0038   0.20    5.5
2161 283855.400  -3961766.0454   3349008.9190   3698311.0174   1  26   0.0053   0.0054   0.0047  -0.0045   0.0037  -0.0038   0.40    5.8
2161 283855.600  -3961766.0458   3349008.9212   3698311.0171   1  26   0.0053   0.0054   0.0047  -0.0045   0.0037  -0.0038   0.60    5.2
2161 283855.800  -3961766.0437   3349008.9191   3698311.0154   1  26   0.0054   0.0055   0.0047  -0.0045   0.0037  -0.0038   0.80    5.6
2161 283856.000  -3961766.0448   3349008.9189   3698311.0162   1  26   0.0053   0.0054   0.0046  -0.0044   0.0037  -0.0038   0.00    6.0
2161 283856.200  -3961766.0453   3349008.9182   3698311.0153   1  26   0.0053   0.0054   0.0046  -0.0044   0.0037  -0.0038   0.20    6.3
2161 283856.400  -3961766.0453   3349008.9192   3698311.0168   1  26   0.0053   0.0054   0.0047  -0.0045   0.0037  -0.0038   0.40    5.4
2161 283856.600  -3961766.0465   3349008.9199   3698311.0164   1  26   0.0053   0.0054   0.0047  -0.0045   0.0037  -0.0038   0.60    5.8
2161 283856.800  -3961766.0468   3349008.9188   3698311.0159   1  26   0.0054   0.0055   0.0047  -0.0045   0.0037  -0.0038   0.80    5.9
2161 283857.000  -3961766.0457   3349008.9189   3698311.0173   1  26   0.0053   0.0054   0.0046  -0.0044   0.0037  -0.0038   0.00    6.2
2161 283857.200  -3961766.0463   3349008.9186   3698311.0170   1  26   0.0053   0.0054   0.0046  -0.0044   0.0037  -0.0038   0.20    5.9
2161 283857.400  -3961766.0479   3349008.9197   3698311.0165   1  26   0.0053   0.0054   0.0047  -0.0045   0.0037  -0.0038   0.40    5.5
2161 283857.600  -3961766.0460   3349008.9186   3698311.0167   1  26   0.0053   0.0054   0.0047  -0.0045   0.0037  -0.0038   0.60    5.3
2161 283857.800  -3961766.0435   3349008.9191   3698311.0157   1  26   0.0054   0.0055   0.0047  -0.0045   0.0037  -0.0038   0.80    5.8
2161 283858.000  -3961766.0461   3349008.9174   3698311.0164   1  26   0.0053   0.0054   0.0046  -0.0044   0.0037  -0.0038   0.00    5.6
2161 283858.200  -3961766.0466   3349008.9203   3698311.0176   1  26   0.0053   0.0054   0.0046  -0.0044   0.0037  -0.0038   0.20    5.8
2161 283858.400  -3961766.0463   3349008.9187   3698311.0166   1  26   0.0053   0.0054   0.0047  -0.0045   0.0037  -0.0038   0.40    5.8
2161 283858.600  -3961766.0487   3349008.9205   3698311.0169   1  26   0.0053   0.0054   0.0047  -0.0045   0.0037  -0.0038   0.60    5.7
2161 283858.800  -3961766.0489   3349008.9214   3698311.0164   1  26   0.0054   0.0055   0.0047  -0.0045   0.0037  -0.0038   0.80    5.3
2161 283859.000  -3961766.0462   3349008.9197   3698311.0161   1  27   0.0052   0.0051   0.0046  -0.0042   0.0035  -0.0037   0.00    5.0
2161 283859.200  -3961766.0461   3349008.9193   3698311.0159   1  27   0.0052   0.0051   0.0046  -0.0042   0.0035  -0.0037   0.20    5.7
2161 283859.600  -3961766.0451   3349008.9182   3698311.0145   1  27   0.0052   0.0051   0.0046  -0.0042   0.0036  -0.0037   0.60    6.0
2161 283859.800  -3961766.0461   3349008.9201   3698311.0155   1  27   0.0052   0.0052   0.0047  -0.0042   0.0036  -0.0037   0.80    5.5
2161 283860.000  -3961766.0446   3349008.9201   3698311.0168   1  27   0.0052   0.0051   0.0046  -0.0042   0.0035  -0.0037   0.00    4.8
2161 283860.200  -3961766.0472   3349008.9208   3698311.0173   1  27   0.0052   0.0051   0.0046  -0.0042   0.0035  -0.0037   0.20    4.8
2161 283860.400  -3961766.0468   3349008.9206   3698311.0177   1  27   0.0052   0.0051   0.0046  -0.0042   0.0036  -0.0037   0.40    5.0
2161 283860.600  -3961766.0459   3349008.9196   3698311.0167   1  26   0.0053   0.0054   0.0047  -0.0045   0.0037  -0.0038   0.60    5.3
2161 283860.800  -3961766.0459   3349008.9202   3698311.0179   1  26   0.0054   0.0055   0.0047  -0.0045   0.0037  -0.0038   0.80    5.5
2161 283861.000  -3961766.0456   3349008.9197   3698311.0164   1  26   0.0053   0.0054   0.0046  -0.0044   0.0037  -0.0038   0.00    6.0
2161 283861.200  -3961766.0472   3349008.9203   3698311.0171   1  26   0.0053   0.0054   0.0046  -0.0044   0.0037  -0.0038   0.20    5.9
2161 283861.400  -3961766.0462   3349008.9184   3698311.0168   1  26   0.0053   0.0054   0.0047  -0.0045   0.0037  -0.0038   0.40    5.2
2161 283861.600  -3961766.0479   3349008.9213   3698311.0176   1  26   0.0053   0.0054   0.0047  -0.0045   0.0037  -0.0038   0.60    5.0
2161 283861.800  -3961766.0471   3349008.9208   3698311.0181   1  26   0.0054   0.0055   0.0047  -0.0045   0.0037  -0.0038   0.80    5.0
2161 283862.000  -3961766.0490   3349008.9211   3698311.0179   1  26   0.0053   0.0054   0.0046  -0.0044   0.0037  -0.0038   0.00    5.4
2161 283862.200  -3961766.0483   3349008.9204   3698311.0179   1  26   0.0053   0.0054   0.0046  -0.0044   0.0037  -0.0038   0.20    6.3
2161 283862.400  -3961766.0479   3349008.9214   3698311.0176   1  26   0.0053   0.0054   0.0047  -0.0045   0.0037  -0.0038   0.40    6.2
2161 283862.600  -3961766.0475   3349008.9212   3698311.0178   1  26   0.0053   0.0054   0.0047  -0.0045   0.0037  -0.0038   0.60    5.9
2161 283862.800  -3961766.0485   3349008.9208   3698311.0181   1  26   0.0054   0.0055   0.0047  -0.0045   0.0037  -0.0038   0.80    5.5
2161 283863.000  -3961766.0454   3349008.9190   3698311.0169   1  26   0.0053   0.0054   0.0046  -0.0044   0.0037  -0.0038   0.00    5.0
2161 283863.200  -3961766.0465   3349008.9189   3698311.0173   1  26   0.0053   0.0054   0.0046  -0.0044   0.0037  -0.0038   0.20    5.4
2161 283863.400  -3961766.0472   3349008.9195   3698311.0165   1  26   0.0053   0.0054   0.0047  -0.0045   0.0037  -0.0038   0.40    5.7
2161 283863.600  -3961766.0462   3349008.9193   3698311.0165   1  26   0.0053   0.0054   0.0047  -0.0045   0.0037  -0.0038   0.60    4.7
2161 283863.800  -3961766.0468   3349008.9208   3698311.0158   1  26   0.0054   0.0055   0.0047  -0.0045   0.0037  -0.0038   0.80    5.8
2161 283864.000  -3961766.0449   3349008.9190   3698311.0162   1  26   0.0053   0.0054   0.0046  -0.0044   0.0037  -0.0038   0.00    5.1
2161 283864.200  -3961766.0458   3349008.9193   3698311.0164   1  26   0.0053   0.0054   0.0046  -0.0044   0.0037  -0.0038   0.20    5.7
2161 283864.400  -3961766.0467   3349008.9193   3698311.0164   1  26   0.0053   0.0054   0.0047  -0.0045   0.0037  -0.0038   0.40    5.8
2161 283864.600  -3961766.0461   3349008.9184   3698311.0156   1  26   0.0053   0.0054   0.0047  -0.0045   0.0037  -0.0038   0.60    5.5
2161 283864.800  -3961766.0481   3349008.9204   3698311.0172   1  26   0.0054   0.0055   0.0047  -0.0045   0.0037  -0.0038   0.80    5.2
2161 283865.000  -3961766.0461   3349008.9197   3698311.0164   1  26   0.0053   0.0054   0.0046  -0.0044   0.0037  -0.0038   0.00    5.6
2161 283865.200  -3961766.0457   3349008.9191   3698311.0167   1  26   0.0053   0.0054   0.0046  -0.0044   0.0037  -0.0038   0.20    5.9
2161 283865.400  -3961766.0477   3349008.9202   3698311.0162   1  26   0.0053   0.0054   0.0047  -0.0045   0.0037  -0.0038   0.40    5.3
2161 283865.600  -3961766.0471   3349008.9198   3698311.0157   1  26   0.0053   0.0054   0.0047  -0.0045   0.0037  -0.0038   0.60    5.5
2161 283865.800  -3961766.0482   3349008.9211   3698311.0159   1  26   0.0054   0.0055   0.0047  -0.0045   0.0037  -0.0038   0.80    4.9
2161 283866.000  -3961766.0478   3349008.9214   3698311.0173   1  26   0.0053   0.0054   0.0046  -0.0044   0.0037  -0.0038   0.00    5.1
2161 283866.200  -3961766.0464   3349008.9201   3698311.0155   1  26   0.0053   0.0054   0.0046  -0.0044   0.0037  -0.0038   0.20    5.8
2161 283866.400  -3961766.0446   3349008.9199   3698311.0166   1  26   0.0053   0.0054   0.0047  -0.0045   0.0037  -0.0038   0.40    5.8
2161 283866.600  -3961766.0459   3349008.9193   3698311.0168   1  26   0.0053   0.0054   0.0047  -0.0045   0.0037  -0.0038   0.60    6.2
2161 283866.800  -3961766.0447   3349008.9199   3698311.0158   1  26   0.0054   0.0055   0.0047  -0.0045   0.0037  -0.0038   0.80    6.8
2161 283867.000  -3961766.0453   3349008.9185   3698311.0160   1  26   0.0053   0.0054   0.0046  -0.0044   0.0037  -0.0038   0.00    5.4
2161 283867.200  -3961766.0447   3349008.9185   3698311.0154   1  26   0.0053   0.0054   0.0046  -0.0044   0.0037  -0.0038   0.20    5.5
2161 283867.400  -3961766.0442   3349008.9177   3698311.0145   1  26   0.0053   0.0054   0.0047  -0.0045   0.0037  -0.0038   0.40    5.6
2161 283867.600  -3961766.0461   3349008.9193   3698311.0158   1  26   0.0053   0.0054   0.0047  -0.0045   0.0037  -0.0038   0.60    6.2
2161 283867.800  -3961766.0459   3349008.9182   3698311.0145   1  26   0.0054   0.0055   0.0047  -0.0045   0.0037  -0.0038   0.80    5.8
2161 283868.000  -3961766.0437   3349008.9197   3698311.0138   1  26   0.0053   0.0054   0.0046  -0.0044   0.0037  -0.0038   0.00    6.5
2161 283868.200  -3961766.0455   3349008.9202   3698311.0145   1  26   0.0053   0.0054   0.0046  -0.0044   0.0037  -0.0038   0.20    6.1
2161 283868.400  -3961766.0436   3349008.9195   3698311.0116   1  26   0.0053   0.0054   0.0047  -0.0045   0.0037  -0.0038   0.40    7.0
2161 283868.600  -3961766.0438   3349008.9195   3698311.0128   1  26   0.0053   0.0054   0.0047  -0.0045   0.0037  -0.0038   0.60    7.3
2161 283868.800  -3961766.0429   3349008.9190   3698311.0124   1  26   0.0054   0.0055   0.0047  -0.0045   0.0037  -0.0038   0.80    7.1
2161 283869.000  -3961766.0442   3349008.9186   3698311.0136   1  26   0.0053   0.0054   0.0046  -0.0044   0.0037  -0.0038   0.00    5.4
2161 283869.200  -3961766.0428   3349008.9154   3698311.0132   1  27   0.0052   0.0051   0.0046  -0.0042   0.0035  -0.0037   0.20    5.4
2161 283869.400  -3961766.0434   3349008.9155   3698311.0119   1  27   0.0052   0.0051   0.0046  -0.0042   0.0036  -0.0037   0.40    5.5
2161 283869.600  -3961766.0445   3349008.9177   3698311.0129   1  26   0.0053   0.0054   0.0047  -0.0045   0.0037  -0.0038   0.60    6.1
2161 283869.800  -3961766.0432   3349008.9167   3698311.0138   1  26   0.0054   0.0055   0.0047  -0.0045   0.0037  -0.0038   0.80    6.5
2161 283870.000  -3961766.0446   3349008.9175   3698311.0147   1  26   0.0053   0.0054   0.0046  -0.0044   0.0037  -0.0038   0.00    5.5
2161 283870.200  -3961766.0455   3349008.9164   3698311.0155   1  27   0.0052   0.0051   0.0046  -0.0042   0.0035  -0.0037   0.20    4.7
2161 283870.400  -3961766.0456   3349008.9174   3698311.0153   1  27   0.0052   0.0051   0.0046  -0.0042   0.0036  -0.0037   0.40    4.9
2161 283870.600  -3961766.0456   3349008.9173   3698311.0153   1  27   0.0052   0.0051   0.0046  -0.0042   0.0036  -0.0037   0.60    4.9
2161 283870.800  -3961766.0446   3349008.9156   3698311.0149   1  27   0.0052   0.0052   0.0047  -0.0042   0.0036  -0.0037   0.80    5.4
2161 283871.000  -3961766.0431   3349008.9175   3698311.0139   1  26   0.0053   0.0054   0.0046  -0.0044   0.0037  -0.0038   0.00    6.0
2161 283871.200  -3961766.0444   3349008.9182   3698311.0152   1  27   0.0052   0.0051   0.0046  -0.0042   0.0035  -0.0037   0.20    5.1
2161 283871.400  -3961766.0447   3349008.9191   3698311.0142   1  26   0.0053   0.0054   0.0047  -0.0044   0.0037  -0.0038   0.40    5.8
2161 283871.600  -3961766.0454   3349008.9205   3698311.0157   1  26   0.0053   0.0054   0.0047  -0.0045   0.0037  -0.0038   0.60    5.8
2161 283871.800  -3961766.0442   3349008.9192   3698311.0150   1  26   0.0054   0.0055   0.0047  -0.0045   0.0037  -0.0038   0.80    6.1
2161 283872.000  -3961766.0439   3349008.9178   3698311.0147   1  26   0.0053   0.0054   0.0046  -0.0044   0.0037  -0.0038   0.00    6.1
2161 283872.200  -3961766.0430   3349008.9159   3698311.0146   1  26   0.0053   0.0054   0.0046  -0.0044   0.0037  -0.0038   0.20    5.8
2161 283872.400  -3961766.0445   3349008.9175   3698311.0138   1  26   0.0053   0.0054   0.0047  -0.0044   0.0037  -0.0038   0.40    5.2
2161 283872.600  -3961766.0434   3349008.9160   3698311.0144   1  26   0.0053   0.0054   0.0047  -0.0045   0.0037  -0.0038   0.60    5.0
2161 283872.800  -3961766.0424   3349008.9171   3698311.0139   1  26   0.0054   0.0055   0.0047  -0.0045   0.0037  -0.0038   0.80    5.7
2161 283873.000  -3961766.0446   3349008.9194   3698311.0139   1  26   0.0053   0.0054   0.0046  -0.0044   0.0037  -0.0038   0.00    6.0
2161 283873.200  -3961766.0438   3349008.9188   3698311.0135   1  27   0.0052   0.0051   0.0046  -0.0042   0.0035  -0.0037   0.20    6.0
2161 283873.400  -3961766.0447   3349008.9184   3698311.0133   1  27   0.0052   0.0051   0.0046  -0.0042   0.0036  -0.0037   0.40    5.1
2161 283873.600  -3961766.0448   3349008.9191   3698311.0137   1  27   0.0052   0.0051   0.0046  -0.0042   0.0036  -0.0037   0.60    6.1
2161 283873.800  -3961766.0457   3349008.9199   3698311.0130   1  26   0.0054   0.0055   0.0047  -0.0045   0.0037  -0.0038   0.80    6.0
2161 283874.000  -3961766.0444   3349008.9199   3698311.0137   1  26   0.0053   0.0054   0.0046  -0.0044   0.0037  -0.0038   0.00    5.9
2161 283874.200  -3961766.0453   3349008.9205   3698311.0144   1  26   0.0053   0.0054   0.0046  -0.0044   0.0037  -0.0038   0.20    5.8
2161 283874.400  -3961766.0431   3349008.9191   3698311.0137   1  26   0.0053   0.0054   0.0047  -0.0044   0.0037  -0.0038   0.40    5.6
2161 283874.600  -3961766.0439   3349008.9201   3698311.0140   1  26   0.0053   0.0054   0.0047  -0.0045   0.0037  -0.0038   0.60    5.9
2161 283874.800  -3961766.0430   3349008.9193   3698311.0137   1  26   0.0054   0.0055   0.0047  -0.0045   0.0037  -0.0038   0.80    6.7
2161 283875.000  -3961766.0453   3349008.9207   3698311.0149   1  26   0.0053   0.0054   0.0046  -0.0044   0.0037  -0.0038   0.00    5.2
2161 283875.200  -3961766.0448   3349008.9191   3698311.0140   1  26   0.0053   0.0054   0.0046  -0.0044   0.0037  -0.0038   0.20    5.0
2161 283875.400  -3961766.0441   3349008.9192   3698311.0141   1  26   0.0053   0.0054   0.0047  -0.0044   0.0037  -0.0038   0.40    5.7
2161 283875.600  -3961766.0451   3349008.9203   3698311.0145   1  26   0.0053   0.0054   0.0047  -0.0045   0.0037  -0.0038   0.60    4.3
2161 283875.800  -3961766.0459   3349008.9209   3698311.0135   1  26   0.0054   0.0055   0.0047  -0.0045   0.0037  -0.0038   0.80    5.4
2161 283876.000  -3961766.0450   3349008.9187   3698311.0159   1  27   0.0052   0.0051   0.0046  -0.0042   0.0035  -0.0037   0.00    5.1
2161 283876.200  -3961766.0447   3349008.9180   3698311.0125   1  26   0.0053   0.0054   0.0046  -0.0044   0.0037  -0.0038   0.20    6.6
2161 283876.400  -3961766.0467   3349008.9205   3698311.0141   1  26   0.0053   0.0054   0.0047  -0.0044   0.0037  -0.0038   0.40    6.2
2161 283876.600  -3961766.0452   3349008.9196   3698311.0134   1  26   0.0053   0.0054   0.0047  -0.0045   0.0037  -0.0038   0.60    6.6
2161 283876.800  -3961766.0461   3349008.9212   3698311.0148   1  26   0.0054   0.0055   0.0047  -0.0045   0.0037  -0.0038   0.80    6.2
2161 283877.000  -3961766.0440   3349008.9188   3698311.0135   1  26   0.0053   0.0054   0.0046  -0.0044   0.0037  -0.0038   0.00    6.1
2161 283877.200  -3961766.0439   3349008.9188   3698311.0141   1  26   0.0053   0.0054   0.0046  -0.0044   0.0037  -0.0038   0.20    5.9
2161 283877.400  -3961766.0445   3349008.9192   3698311.0131   1  26   0.0053   0.0054   0.0047  -0.0044   0.0037  -0.0038   0.40    6.3
2161 283877.600  -3961766.0432   3349008.9189   3698311.0129   1  26   0.0053   0.0054   0.0047  -0.0045   0.0037  -0.0038   0.60    6.2
2161 283877.800  -3961766.0434   3349008.9183   3698311.0124   1  26   0.0054   0.0055   0.0047  -0.0045   0.0037  -0.0038   0.80    6.8
2161 283878.000  -3961766.0444   3349008.9204   3698311.0150   1  26   0.0053   0.0054   0.0046  -0.0044   0.0037  -0.0038   0.00    5.8
2161 283878.200  -3961766.0452   3349008.9207   3698311.0143   1  26   0.0053   0.0054   0.0046  -0.0044   0.0037  -0.0038   0.20    6.2
2161 283878.400  -3961766.0443   3349008.9197   3698311.0146   1  26   0.0053   0.0054   0.0047  -0.0044   0.0037  -0.0038   0.40    6.1
2161 283878.600  -3961766.0449   3349008.9196   3698311.0134   1  26   0.0053   0.0054   0.0047  -0.0045   0.0037  -0.0038   0.60    7.1
2161 283878.800  -3961766.0458   3349008.9213   3698311.0141   1  26   0.0054   0.0055   0.0047  -0.0045   0.0037  -0.0038   0.80    6.8
2161 283879.000  -3961766.0434   3349008.9198   3698311.0140   1  26   0.0053   0.0054   0.0046  -0.0044   0.0037  -0.0038   0.00    6.1
2161 283879.200  -3961766.0443   3349008.9198   3698311.0151   1  26   0.0053   0.0054   0.0046  -0.0044   0.0037  -0.0038   0.20    6.3
2161 283879.400  -3961766.0433   3349008.9182   3698311.0134   1  26   0.0053   0.0054   0.0047  -0.0044   0.0037  -0.0038   0.40    6.7
2161 283879.600  -3961766.0439   3349008.9196   3698311.0135   1  26   0.0053   0.0054   0.0047  -0.0045   0.0037  -0.0038   0.60    7.0
2161 283879.800  -3961766.0449   3349008.9218   3698311.0145   1  26   0.0053   0.0055   0.0047  -0.0045   0.0037  -0.0038   0.80    6.7
2161 283880.000  -3961766.0451   3349008.9209   3698311.0148   1  26   0.0053   0.0054   0.0046  -0.0044   0.0037  -0.0038   0.00    6.2
2161 283880.200  -3961766.0439   3349008.9206   3698311.0147   1  26   0.0053   0.0054   0.0046  -0.0044   0.0037  -0.0038   0.20    6.5
2161 283880.600  -3961766.0444   3349008.9202   3698311.0126   1  26   0.0053   0.0054   0.0047  -0.0045   0.0037  -0.0038   0.60    5.7
2161 283880.800  -3961766.0451   3349008.9204   3698311.0139   1  26   0.0053   0.0055   0.0047  -0.0045   0.0037  -0.0038   0.80    6.1
2161 283881.000  -3961766.0444   3349008.9197   3698311.0163   1  27   0.0052   0.0051   0.0046  -0.0042   0.0035  -0.0037   0.00    4.5
2161 283881.200  -3961766.0440   3349008.9195   3698311.0162   1  27   0.0052   0.0051   0.0046  -0.0042   0.0035  -0.0037   0.20    4.7
2161 283881.400  -3961766.0428   3349008.9177   3698311.0135   1  27   0.0052   0.0051   0.0046  -0.0042   0.0036  -0.0037   0.40    5.9
2161 283881.600  -3961766.0440   3349008.9196   3698311.0157   1  27   0.0052   0.0051   0.0046  -0.0042   0.0036  -0.0037   0.60    5.0
2161 283881.800  -3961766.0423   3349008.9181   3698311.0151   1  27   0.0052   0.0052   0.0047  -0.0042   0.0036  -0.0037   0.80    5.1
2161 283882.000  -3961766.0424   3349008.9169   3698311.0138   1  27   0.0052   0.0051   0.0046  -0.0042   0.0035  -0.0037   0.00    5.9
2161 283882.200  -3961766.0440   3349008.9188   3698311.0147   1  26   0.0053   0.0054   0.0046  -0.0044   0.0037  -0.0038   0.20    6.2
2161 283882.400  -3961766.0427   3349008.9190   3698311.0151   1  26   0.0053   0.0054   0.0047  -0.0044   0.0037  -0.0038   0.40    6.3
2161 283882.600  -3961766.0427   3349008.9184   3698311.0146   1  27   0.0052   0.0051   0.0046  -0.0042   0.0036  -0.0037   0.60    5.4
2161 283882.800  -3961766.0439   3349008.9197   3698311.0153   1  26   0.0053   0.0055   0.0047  -0.0045   0.0037  -0.0038   0.80    6.1
2161 283883.000  -3961766.0429   3349008.9190   3698311.0158   1  27   0.0052   0.0051   0.0046  -0.0042   0.0035  -0.0037   0.00    5.7
2161 283883.200  -3961766.0424   3349008.9177   3698311.0151   1  27   0.0052   0.0051   0.0046  -0.0042   0.0036  -0.0037   0.20    5.6
2161 283883.400  -3961766.0417   3349008.9196   3698311.0154   1  27   0.0052   0.0051   0.0046  -0.0042   0.0036  -0.0037   0.40    5.8
2161 283883.600  -3961766.0418   3349008.9190   3698311.0157   1  27   0.0052   0.0051   0.0046  -0.0042   0.0036  -0.0037   0.60    5.1
2161 283883.800  -3961766.0421   3349008.9180   3698311.0156   1  27   0.0052   0.0052   0.0047  -0.0042   0.0036  -0.0037   0.80    5.4
2161 283884.000  -3961766.0425   3349008.9177   3698311.0140   1  27   0.0052   0.0051   0.0046  -0.0042   0.0035  -0.0037   0.00    6.4
2161 283884.200  -3961766.0414   3349008.9167   3698311.0126   1  27   0.0052   0.0051   0.0046  -0.0042   0.0036  -0.0037   0.20    5.9
2161 283884.400  -3961766.0408   3349008.9154   3698311.0119   1  27   0.0052   0.0051   0.0046  -0.0042   0.0036  -0.0037   0.40    6.8
2161 283884.600  -3961766.0408   3349008.9155   3698311.0126   1  27   0.0052   0.0051   0.0046  -0.0042   0.0036  -0.0037   0.60    6.0
2161 283884.800  -3961766.0414   3349008.9177   3698311.0119   1  26   0.0053   0.0055   0.0047  -0.0045   0.0037  -0.0038   0.80    7.2
2161 283885.000  -3961766.0439   3349008.9198   3698311.0135   1  26   0.0053   0.0054   0.0046  -0.0044   0.0037  -0.0038   0.00    8.3
2161 283885.200  -3961766.0419   3349008.9180   3698311.0133   1  26   0.0053   0.0054   0.0046  -0.0044   0.0037  -0.0038   0.20    7.8
2161 283885.400  -3961766.0425   3349008.9169   3698311.0141   1  26   0.0053   0.0054   0.0047  -0.0044   0.0037  -0.0038   0.40    8.7
2161 283885.600  -3961766.0422   3349008.9187   3698311.0127   1  26   0.0053   0.0054   0.0047  -0.0045   0.0037  -0.0038   0.60    7.4
2161 283885.800  -3961766.0437   3349008.9188   3698311.0130   1  26   0.0053   0.0055   0.0047  -0.0045   0.0037  -0.0038   0.80    7.6
2161 283886.000  -3961766.0420   3349008.9181   3698311.0135   1  26   0.0053   0.0054   0.0046  -0.0044   0.0037  -0.0038   0.00    8.3
2161 283886.200  -3961766.0430   3349008.9214   3698311.0143   1  26   0.0053   0.0054   0.0046  -0.0044   0.0037  -0.0038   0.20    6.5
2161 283886.400  -3961766.0420   3349008.9200   3698311.0130   1  26   0.0053   0.0054   0.0047  -0.0044   0.0037  -0.0038   0.40    7.7
2161 283886.600  -3961766.0420   3349008.9182   3698311.0134   1  26   0.0053   0.0054   0.0047  -0.0045   0.0037  -0.0038   0.60    6.6
2161 283886.800  -3961766.0412   3349008.9183   3698311.0122   1  26   0.0053   0.0055   0.0047  -0.0045   0.0037  -0.0038   0.80    7.2
2161 283887.000  -3961766.0438   3349008.9193   3698311.0145   1  26   0.0053   0.0054   0.0046  -0.0044   0.0037  -0.0038   0.00    6.4
2161 283887.200  -3961766.0416   3349008.9188   3698311.0141   1  26   0.0053   0.0054   0.0046  -0.0044   0.0037  -0.0038   0.20    7.2
2161 283887.400  -3961766.0435   3349008.9194   3698311.0132   1  26   0.0053   0.0054   0.0047  -0.0044   0.0037  -0.0038   0.40    6.8
2161 283887.600  -3961766.0429   3349008.9192   3698311.0134   1  26   0.0053   0.0054   0.0047  -0.0045   0.0037  -0.0038   0.60    6.6
2161 283887.800  -3961766.0449   3349008.9215   3698311.0148   1  26   0.0053   0.0055   0.0047  -0.0045   0.0037  -0.0038   0.80    6.8
2161 283888.000  -3961766.0421   3349008.9188   3698311.0158   1  26   0.0053   0.0054   0.0046  -0.0044   0.0037  -0.0038   0.00    6.2
2161 283888.200  -3961766.0417   3349008.9181   3698311.0143   1  26   0.0053   0.0054   0.0046  -0.0044   0.0037  -0.0038   0.20    6.3
2161 283888.400  -3961766.0403   3349008.9169   3698311.0133   1  26   0.0053   0.0054   0.0047  -0.0044   0.0037  -0.0038   0.40    7.0
2161 283888.600  -3961766.0421   3349008.9193   3698311.0154   1  26   0.0053   0.0054   0.0047  -0.0045   0.0037  -0.0038   0.60    6.0
2161 283888.800  -3961766.0419   3349008.9188   3698311.0141   1  26   0.0053   0.0055   0.0047  -0.0045   0.0037  -0.0038   0.80    7.0
2161 283889.000  -3961766.0404   3349008.9159   3698311.0140   1  26   0.0053   0.0054   0.0046  -0.0044   0.0037  -0.0038   0.00    6.5
2161 283889.200  -3961766.0407   3349008.9167   3698311.0147   1  26   0.0053   0.0054   0.0046  -0.0044   0.0037  -0.0038   0.20    7.0
2161 283889.400  -3961766.0419   3349008.9173   3698311.0142   1  26   0.0053   0.0054   0.0047  -0.0044   0.0037  -0.0038   0.40    6.9
2161 283889.600  -3961766.0415   3349008.9163   3698311.0139   1  26   0.0053   0.0054   0.0047  -0.0045   0.0037  -0.0038   0.60    7.0
2161 283889.800  -3961766.0402   3349008.9162   3698311.0131   1  26   0.0053   0.0055   0.0047  -0.0045   0.0037  -0.0038   0.80    6.9
2161 283890.000  -3961766.0416   3349008.9187   3698311.0157   1  26   0.0053   0.0054   0.0046  -0.0044   0.0037  -0.0038   0.00    6.4
2161 283890.200  -3961766.0411   3349008.9173   3698311.0157   1  26   0.0053   0.0054   0.0047  -0.0044   0.0037  -0.0038   0.20    7.4
2161 283890.400  -3961766.0416   3349008.9174   3698311.0140   1  26   0.0053   0.0054   0.0047  -0.0044   0.0037  -0.0038   0.40    7.8
2161 283890.600  -3961766.0398   3349008.9167   3698311.0147   1  26   0.0053   0.0054   0.0047  -0.0045   0.0037  -0.0038   0.60    6.8
2161 283890.800  -3961766.0424   3349008.9186   3698311.0145   1  26   0.0053   0.0055   0.0047  -0.0045   0.0037  -0.0038   0.80    7.0
2161 283891.000  -3961766.0416   3349008.9171   3698311.0141   1  26   0.0053   0.0054   0.0046  -0.0044   0.0037  -0.0038   0.00    7.6
2161 283891.200  -3961766.0425   3349008.9174   3698311.0145   1  26   0.0053   0.0054   0.0047  -0.0044   0.0037  -0.0038   0.20    9.0
2161 283891.400  -3961766.0429   3349008.9185   3698311.0140   1  26   0.0053   0.0054   0.0047  -0.0044   0.0037  -0.0038   0.40    7.5
2161 283891.600  -3961766.0418   3349008.9182   3698311.0126   1  26   0.0053   0.0054   0.0047  -0.0045   0.0037  -0.0038   0.60   10.4
2161 283891.800  -3961766.0453   3349008.9227   3698311.0156   1  26   0.0055   0.0059   0.0047  -0.0047   0.0039  -0.0039   0.80    9.2
2161 283892.000  -3961766.0445   3349008.9225   3698311.0174   1  26   0.0054   0.0058   0.0047  -0.0047   0.0038  -0.0039   0.00    6.9
2161 283892.200  -3961766.0435   3349008.9217   3698311.0165   1  26   0.0054   0.0058   0.0047  -0.0047   0.0039  -0.0039   0.20    9.7
2161 283892.400  -3961766.0449   3349008.9228   3698311.0175   1  26   0.0054   0.0058   0.0047  -0.0047   0.0039  -0.0039   0.40    8.8
2161 283892.600  -3961766.0454   3349008.9225   3698311.0162   1  26   0.0054   0.0058   0.0047  -0.0047   0.0039  -0.0039   0.60   10.3
2161 283892.800  -3961766.0439   3349008.9214   3698311.0162   1  26   0.0055   0.0059   0.0047  -0.0047   0.0039  -0.0039   0.80    7.8
2161 283893.000  -3961766.0428   3349008.9212   3698311.0159   1  26   0.0054   0.0058   0.0047  -0.0047   0.0038  -0.0039   0.00    9.3
2161 283893.200  -3961766.0411   3349008.9195   3698311.0134   1  26   0.0054   0.0058   0.0047  -0.0047   0.0039  -0.0039   0.20    9.6
2161 283893.400  -3961766.0427   3349008.9209   3698311.0163   1  26   0.0054   0.0058   0.0047  -0.0047   0.0039  -0.0039   0.40    8.1
2161 283893.600  -3961766.0440   3349008.9207   3698311.0158   1  26   0.0054   0.0058   0.0047  -0.0047   0.0039  -0.0039   0.60    8.4
2161 283893.800  -3961766.0433   3349008.9196   3698311.0146   1  26   0.0055   0.0059   0.0047  -0.0047   0.0039  -0.0039   0.80    8.5
2161 283894.000  -3961766.0430   3349008.9209   3698311.0153   1  26   0.0054   0.0058   0.0047  -0.0047   0.0038  -0.0039   0.00   10.8
2161 283894.200  -3961766.0441   3349008.9230   3698311.0162   1  26   0.0054   0.0058   0.0047  -0.0047   0.0039  -0.0039   0.20    9.5
2161 283894.400  -3961766.0430   3349008.9225   3698311.0156   1  26   0.0054   0.0058   0.0047  -0.0047   0.0039  -0.0039   0.40    8.3
2161 283894.600  -3961766.0429   3349008.9218   3698311.0149   1  26   0.0054   0.0058   0.0047  -0.0047   0.0039  -0.0039   0.60    7.4
2161 283894.800  -3961766.0422   3349008.9203   3698311.0145   1  26   0.0055   0.0059   0.0047  -0.0047   0.0039  -0.0039   0.80    8.1
2161 283895.000  -3961766.0425   3349008.9205   3698311.0156   1  26   0.0054   0.0058   0.0047  -0.0047   0.0038  -0.0039   0.00    7.9
2161 283895.200  -3961766.0428   3349008.9209   3698311.0150   1  26   0.0054   0.0058   0.0047  -0.0047   0.0039  -0.0039   0.20    8.6
2161 283895.400  -3961766.0416   3349008.9198   3698311.0148   1  26   0.0054   0.0058   0.0047  -0.0047   0.0039  -0.0039   0.40    8.8
2161 283895.600  -3961766.0404   3349008.9189   3698311.0141   1  26   0.0054   0.0058   0.0047  -0.0047   0.0039  -0.0039   0.60    8.7
2161 283895.800  -3961766.0410   3349008.9190   3698311.0144   1  26   0.0055   0.0059   0.0047  -0.0047   0.0039  -0.0039   0.80    9.8
2161 283896.000  -3961766.0421   3349008.9206   3698311.0165   1  26   0.0054   0.0058   0.0047  -0.0047   0.0038  -0.0039   0.00   10.1
2161 283896.200  -3961766.0416   3349008.9196   3698311.0153   1  26   0.0054   0.0058   0.0047  -0.0047   0.0039  -0.0039   0.20    9.0
2161 283896.400  -3961766.0450   3349008.9236   3698311.0178   1  26   0.0054   0.0058   0.0047  -0.0047   0.0039  -0.0039   0.40    8.0
2161 283896.600  -3961766.0415   3349008.9186   3698311.0157   1  26   0.0054   0.0058   0.0047  -0.0047   0.0039  -0.0039   0.60    9.9
2161 283896.800  -3961766.0414   3349008.9187   3698311.0163   1  26   0.0055   0.0059   0.0047  -0.0047   0.0039  -0.0039   0.80    9.5
2161 283897.000  -3961766.0427   3349008.9203   3698311.0167   1  26   0.0054   0.0058   0.0047  -0.0047   0.0038  -0.0039   0.00    7.8
2161 283897.200  -3961766.0429   3349008.9199   3698311.0163   1  26   0.0054   0.0058   0.0047  -0.0047   0.0039  -0.0039   0.20    8.8
2161 283897.400  -3961766.0427   3349008.9210   3698311.0159   1  26   0.0054   0.0058   0.0047  -0.0047   0.0039  -0.0039   0.40   10.1
2161 283897.600  -3961766.0422   3349008.9197   3698311.0162   1  26   0.0054   0.0058   0.0047  -0.0047   0.0039  -0.0039   0.60    7.8
2161 283897.800  -3961766.0413   3349008.9185   3698311.0155   1  25   0.0055   0.0059   0.0048  -0.0047   0.0039  -0.0040   0.80   10.8
2161 283898.000  -3961766.0452   3349008.9239   3698311.0174   1  25   0.0055   0.0058   0.0048  -0.0047   0.0038  -0.0040   0.00    8.9
2161 283898.200  -3961766.0441   3349008.9215   3698311.0170   1  25   0.0055   0.0058   0.0048  -0.0047   0.0038  -0.0040   0.20    7.8
2161 283898.400  -3961766.0445   3349008.9207   3698311.0167   1  25   0.0055   0.0058   0.0048  -0.0047   0.0038  -0.0040   0.40    8.3
2161 283898.600  -3961766.0439   3349008.9222   3698311.0160   1  25   0.0055   0.0058   0.0048  -0.0047   0.0038  -0.0040   0.60    9.0
2161 283898.800  -3961766.0442   3349008.9223   3698311.0164   1  25   0.0055   0.0059   0.0048  -0.0047   0.0039  -0.0040   0.80    8.0
2161 283899.000  -3961766.0441   3349008.9198   3698311.0165   1  25   0.0055   0.0058   0.0048  -0.0047   0.0038  -0.0040   0.00    8.3
2161 283899.200  -3961766.0448   3349008.9202   3698311.0165   1  25   0.0055   0.0058   0.0048  -0.0047   0.0038  -0.0040   0.20    8.5
2161 283899.400  -3961766.0450   3349008.9206   3698311.0161   1  25   0.0055   0.0058   0.0048  -0.0047   0.0038  -0.0040   0.40    8.2
2161 283899.600  -3961766.0450   3349008.9197   3698311.0165   1  25   0.0055   0.0058   0.0048  -0.0047   0.0038  -0.0040   0.60   10.4
2161 283899.800  -3961766.0454   3349008.9191   3698311.0159   1  25   0.0055   0.0059   0.0048  -0.0047   0.0039  -0.0040   0.80   10.1
2161 283900.000  -3961766.0436   3349008.9180   3698311.0159   1  25   0.0055   0.0058   0.0048  -0.0047   0.0038  -0.0040   0.00    9.1
2161 283900.200  -3961766.0427   3349008.9191   3698311.0151   1  25   0.0055   0.0058   0.0048  -0.0047   0.0038  -0.0040   0.20    9.6
2161 283900.400  -3961766.0444   3349008.9208   3698311.0168   1  25   0.0055   0.0058   0.0048  -0.0047   0.0038  -0.0040   0.40   10.1
2161 283900.600  -3961766.0452   3349008.9209   3698311.0161   1  25   0.0055   0.0058   0.0048  -0.0047   0.0038  -0.0040   0.60   10.2
2161 283900.800  -3961766.0449   3349008.9203   3698311.0160   1  25   0.0055   0.0059   0.0048  -0.0047   0.0039  -0.0040   0.80   10.3
2161 283901.000  -3961766.0439   3349008.9181   3698311.0170   1  25   0.0055   0.0058   0.0048  -0.0047   0.0038  -0.0040   0.00    9.8
2161 283901.200  -3961766.0450   3349008.9199   3698311.0172   1  25   0.0055   0.0058   0.0048  -0.0047   0.0038  -0.0040   0.20    8.9
2161 283901.400  -3961766.0438   3349008.9192   3698311.0152   1  25   0.0055   0.0058   0.0048  -0.0047   0.0038  -0.0040   0.40    9.0
2161 283901.600  -3961766.0429   3349008.9193   3698311.0172   1  25   0.0055   0.0058   0.0048  -0.0047   0.0038  -0.0040   0.60   11.3
2161 283901.800  -3961766.0433   3349008.9193   3698311.0162   1  25   0.0055   0.0059   0.0048  -0.0047   0.0039  -0.0040   0.80    9.9
2161 283902.000  -3961766.0459   3349008.9205   3698311.0185   1  25   0.0055   0.0058   0.0048  -0.0047   0.0038  -0.0040   0.00   10.3
2161 283902.200  -3961766.0449   3349008.9194   3698311.0184   1  26   0.0054   0.0058   0.0047  -0.0047   0.0039  -0.0039   0.20    9.5
2161 283902.400  -3961766.0434   3349008.9175   3698311.0151   1  26   0.0054   0.0058   0.0047  -0.0047   0.0039  -0.0039   0.40   10.6
2161 283902.600  -3961766.0451   3349008.9182   3698311.0173   1  26   0.0054   0.0058   0.0047  -0.0047   0.0039  -0.0039   0.60    9.1
2161 283902.800  -3961766.0452   3349008.9199   3698311.0177   1  25   0.0055   0.0059   0.0048  -0.0047   0.0039  -0.0040   0.80   10.4
2161 283903.000  -3961766.0441   3349008.9190   3698311.0170   1  25   0.0055   0.0058   0.0048  -0.0047   0.0038  -0.0040   0.00    9.7
2161 283903.200  -3961766.0451   3349008.9186   3698311.0181   1  25   0.0055   0.0058   0.0048  -0.0047   0.0038  -0.0040   0.20    8.9
2161 283903.400  -3961766.0446   3349008.9185   3698311.0166   1  25   0.0055   0.0058   0.0048  -0.0047   0.0038  -0.0040   0.40    9.4
2161 283903.600  -3961766.0435   3349008.9179   3698311.0179   1  25   0.0055   0.0058   0.0048  -0.0047   0.0038  -0.0040   0.60    9.7
2161 283903.800  -3961766.0438   3349008.9189   3698311.0173   1  26   0.0055   0.0059   0.0047  -0.0047   0.0039  -0.0039   0.80    9.1
2161 283904.000  -3961766.0457   3349008.9186   3698311.0162   1  26   0.0054   0.0058   0.0047  -0.0047   0.0038  -0.0039   0.00    9.0
2161 283904.200  -3961766.0456   3349008.9203   3698311.0170   1  26   0.0054   0.0058   0.0047  -0.0047   0.0039  -0.0039   0.20    9.3
2161 283904.400  -3961766.0446   3349008.9183   3698311.0163   1  26   0.0054   0.0058   0.0047  -0.0047   0.0039  -0.0039   0.40    9.1
2161 283904.600  -3961766.0455   3349008.9187   3698311.0167   1  26   0.0054   0.0058   0.0047  -0.0047   0.0039  -0.0039   0.60   10.3
2161 283904.800  -3961766.0443   3349008.9181   3698311.0165   1  26   0.0055   0.0059   0.0047  -0.0047   0.0039  -0.0039   0.80    8.7
2161 283905.000  -3961766.0476   3349008.9221   3698311.0178   1  26   0.0054   0.0058   0.0047  -0.0047   0.0038  -0.0039   0.00    9.0
2161 283905.200  -3961766.0477   3349008.9212   3698311.0171   1  26   0.0054   0.0058   0.0047  -0.0047   0.0039  -0.0039   0.20    9.1
2161 283905.400  -3961766.0484   3349008.9220   3698311.0181   1  26   0.0054   0.0058   0.0047  -0.0047   0.0039  -0.0039   0.40    8.2
2161 283905.600  -3961766.0479   3349008.9201   3698311.0165   1  26   0.0054   0.0058   0.0047  -0.0047   0.0039  -0.0039   0.60    9.7
2161 283905.800  -3961766.0496   3349008.9227   3698311.0179   1  26   0.0055   0.0059   0.0047  -0.0047   0.0039  -0.0039   0.80    8.8
2161 283906.000  -3961766.0464   3349008.9199   3698311.0173   1  26   0.0054   0.0058   0.0047  -0.0047   0.0038  -0.0039   0.00    9.8
2161 283906.200  -3961766.0470   3349008.9205   3698311.0173   1  26   0.0054   0.0058   0.0047  -0.0047   0.0039  -0.0039   0.20    8.9
2161 283906.400  -3961766.0467   3349008.9204   3698311.0180   1  26   0.0054   0.0058   0.0047  -0.0047   0.0039  -0.0039   0.40    9.9
2161 283906.600  -3961766.0480   3349008.9223   3698311.0175   1  26   0.0054   0.0058   0.0047  -0.0047   0.0039  -0.0039   0.60   11.7
2161 283906.800  -3961766.0451   3349008.9207   3698311.0167   1  26   0.0055   0.0059   0.0047  -0.0047   0.0039  -0.0039   0.80   10.3
2161 283907.000  -3961766.0455   3349008.9198   3698311.0164   1  26   0.0054   0.0058   0.0047  -0.0047   0.0038  -0.0039   0.00    8.7
2161 283907.200  -3961766.0459   3349008.9187   3698311.0148   1  26   0.0054   0.0058   0.0047  -0.0047   0.0039  -0.0039   0.20   11.5
2161 283907.400  -3961766.0451   3349008.9196   3698311.0150   1  26   0.0054   0.0058   0.0047  -0.0047   0.0039  -0.0039   0.40   10.2
2161 283907.600  -3961766.0455   3349008.9197   3698311.0142   1  26   0.0054   0.0058   0.0047  -0.0047   0.0039  -0.0039   0.60   11.3
2161 283907.800  -3961766.0460   3349008.9197   3698311.0142   1  26   0.0055   0.0059   0.0047  -0.0047   0.0039  -0.0039   0.80    9.8
2161 283908.000  -3961766.0471   3349008.9212   3698311.0168   1  26   0.0054   0.0058   0.0047  -0.0047   0.0038  -0.0039   0.00    9.6
2161 283908.200  -3961766.0446   3349008.9189   3698311.0149   1  26   0.0054   0.0058   0.0047  -0.0047   0.0039  -0.0039   0.20    8.8
2161 283908.400  -3961766.0464   3349008.9213   3698311.0154   1  26   0.0054   0.0058   0.0047  -0.0047   0.0039  -0.0039   0.40   10.4
2161 283908.600  -3961766.0452   3349008.9198   3698311.0152   1  26   0.0054   0.0058   0.0047  -0.0047   0.0039  -0.0039   0.60    9.5
2161 283908.800  -3961766.0455   3349008.9199   3698311.0150   1  26   0.0055   0.0059   0.0047  -0.0047   0.0039  -0.0039   0.80    9.6
2161 283909.000  -3961766.0413   3349008.9181   3698311.0150   1  26   0.0054   0.0058   0.0047  -0.0047   0.0038  -0.0039   0.00   10.6
2161 283909.200  -3961766.0430   3349008.9194   3698311.0150   1  26   0.0054   0.0058   0.0047  -0.0047   0.0038  -0.0039   0.20   10.7
2161 283909.400  -3961766.0436   3349008.9192   3698311.0152   1  26   0.0054   0.0058   0.0047  -0.0047   0.0039  -0.0039   0.40   11.7
2161 283909.600  -3961766.0435   3349008.9192   3698311.0155   1  26   0.0054   0.0058   0.0047  -0.0047   0.0039  -0.0039   0.60   11.0
2161 283909.800  -3961766.0438   3349008.9193   3698311.0160   1  26   0.0055   0.0059   0.0047  -0.0047   0.0039  -0.0039   0.80   11.4
2161 283910.000  -3961766.0445   3349008.9189   3698311.0163   1  26   0.0054   0.0058   0.0047  -0.0047   0.0038  -0.0039   0.00   10.0
2161 283910.200  -3961766.0450   3349008.9186   3698311.0164   1  26   0.0054   0.0058   0.0047  -0.0047   0.0038  -0.0039   0.20   10.0
2161 283910.400  -3961766.0447   3349008.9191   3698311.0172   1  26   0.0054   0.0058   0.0047  -0.0047   0.0039  -0.0039   0.40    9.7
2161 283910.600  -3961766.0448   3349008.9210   3698311.0169   1  26   0.0054   0.0058   0.0047  -0.0047   0.0039  -0.0039   0.60    9.6
2161 283910.800  -3961766.0452   3349008.9201   3698311.0156   1  26   0.0055   0.0059   0.0047  -0.0047   0.0039  -0.0039   0.80   11.2
2161 283911.000  -3961766.0426   3349008.9190   3698311.0163   1  26   0.0054   0.0058   0.0047  -0.0047   0.0038  -0.0039   0.00   10.2
2161 283911.200  -3961766.0436   3349008.9172   3698311.0155   1  26   0.0054   0.0058   0.0047  -0.0047   0.0038  -0.0039   0.20    8.9
2161 283911.400  -3961766.0441   3349008.9187   3698311.0155   1  26   0.0054   0.0058   0.0047  -0.0047   0.0039  -0.0039   0.40    9.6
2161 283911.600  -3961766.0436   3349008.9202   3698311.0159   1  26   0.0054   0.0058   0.0047  -0.0047   0.0039  -0.0039   0.60   10.6
2161 283911.800  -3961766.0421   3349008.9168   3698311.0146   1  26   0.0055   0.0059   0.0047  -0.0047   0.0039  -0.0039   0.80   14.8
2161 283912.000  -3961766.0453   3349008.9198   3698311.0169   1  26   0.0054   0.0058   0.0047  -0.0047   0.0038  -0.0039   0.00   12.3
2161 283912.200  -3961766.0444   3349008.9182   3698311.0164   1  26   0.0054   0.0058   0.0047  -0.0047   0.0038  -0.0039   0.20   12.2
2161 283912.400  -3961766.0461   3349008.9198   3698311.0173   1  26   0.0054   0.0058   0.0047  -0.0047   0.0039  -0.0039   0.40   10.7
2161 283912.600  -3961766.0439   3349008.9179   3698311.0151   1  26   0.0054   0.0058   0.0047  -0.0047   0.0039  -0.0039   0.60   11.0
2161 283912.800  -3961766.0461   3349008.9197   3698311.0160   1  26   0.0055   0.0059   0.0047  -0.0047   0.0039  -0.0039   0.80   11.4
2161 283913.000  -3961766.0450   3349008.9214   3698311.0165   1  26   0.0054   0.0058   0.0047  -0.0047   0.0038  -0.0039   0.00   10.2
2161 283913.200  -3961766.0445   3349008.9192   3698311.0153   1  26   0.0054   0.0058   0.0047  -0.0047   0.0038  -0.0039   0.20   11.1
2161 283913.400  -3961766.0441   3349008.9196   3698311.0154   1  26   0.0054   0.0058   0.0047  -0.0047   0.0039  -0.0039   0.40   11.9
2161 283913.600  -3961766.0436   3349008.9187   3698311.0150   1  26   0.0054   0.0058   0.0047  -0.0047   0.0039  -0.0039   0.60   11.5
2161 283913.800  -3961766.0457   3349008.9215   3698311.0160   1  26   0.0055   0.0059   0.0047  -0.0047   0.0039  -0.0039   0.80   10.5
2161 283914.000  -3961766.0446   3349008.9183   3698311.0162   1  26   0.0054   0.0058   0.0047  -0.0047   0.0038  -0.0039   0.00   11.3
2161 283914.200  -3961766.0441   3349008.9198   3698311.0164   1  26   0.0054   0.0058   0.0047  -0.0047   0.0038  -0.0039   0.20   10.6
2161 283914.400  -3961766.0433   3349008.9191   3698311.0157   1  26   0.0054   0.0058   0.0047  -0.0047   0.0039  -0.0039   0.40   10.2
2161 283914.600  -3961766.0444   3349008.9196   3698311.0163   1  26   0.0054   0.0058   0.0047  -0.0047   0.0039  -0.0039   0.60   11.5
2161 283914.800  -3961766.0463   3349008.9215   3698311.0161   1  26   0.0055   0.0059   0.0047  -0.0047   0.0039  -0.0039   0.80   11.4
2161 283915.000  -3961766.0460   3349008.9195   3698311.0165   1  26   0.0054   0.0058   0.0047  -0.0047   0.0038  -0.0039   0.00    9.2
2161 283915.200  -3961766.0469   3349008.9224   3698311.0169   1  26   0.0054   0.0058   0.0047  -0.0047   0.0038  -0.0039   0.20    9.9
2161 283915.400  -3961766.0451   3349008.9211   3698311.0158   1  26   0.0054   0.0058   0.0047  -0.0047   0.0039  -0.0039   0.40   10.5
2161 283915.600  -3961766.0445   3349008.9207   3698311.0148   1  26   0.0054   0.0058   0.0047  -0.0047   0.0039  -0.0039   0.60   13.0
2161 283915.800  -3961766.0457   3349008.9206   3698311.0158   1  26   0.0055   0.0059   0.0047  -0.0047   0.0039  -0.0039   0.80   10.8
2161 283916.000  -3961766.0463   3349008.9203   3698311.0164   1  26   0.0054   0.0058   0.0047  -0.0047   0.0038  -0.0039   0.00   10.9
2161 283916.200  -3961766.0471   3349008.9204   3698311.0169   1  26   0.0054   0.0058   0.0047  -0.0047   0.0038  -0.0039   0.20   11.3
2161 283916.400  -3961766.0459   3349008.9201   3698311.0159   1  26   0.0054   0.0058   0.0047  -0.0047   0.0039  -0.0039   0.40   10.2
2161 283916.600  -3961766.0464   3349008.9201   3698311.0161   1  26   0.0054   0.0058   0.0047  -0.0047   0.0039  -0.0039   0.60   11.4
2161 283916.800  -3961766.0466   3349008.9204   3698311.0162   1  26   0.0055   0.0059   0.0047  -0.0047   0.0039  -0.0039   0.80   12.9
2161 283917.000  -3961766.0458   3349008.9204   3698311.0160   1  26   0.0054   0.0058   0.0047  -0.0047   0.0038  -0.0039   0.00    9.6
2161 283917.200  -3961766.0453   3349008.9198   3698311.0162   1  26   0.0054   0.0058   0.0047  -0.0047   0.0038  -0.0039   0.20    9.0
2161 283917.400  -3961766.0470   3349008.9214   3698311.0177   1  26   0.0054   0.0058   0.0047  -0.0047   0.0039  -0.0039   0.40   10.2
2161 283917.600  -3961766.0450   3349008.9194   3698311.0156   1  26   0.0054   0.0058   0.0047  -0.0047   0.0039  -0.0039   0.60    9.5
2161 283917.800  -3961766.0470   3349008.9218   3698311.0164   1  26   0.0055   0.0059   0.0047  -0.0047   0.0039  -0.0039   0.80    9.1
2161 283918.000  -3961766.0460   3349008.9216   3698311.0163   1  26   0.0054   0.0058   0.0047  -0.0047   0.0038  -0.0039   0.00    9.4
2161 283918.200  -3961766.0446   3349008.9186   3698311.0142   1  26   0.0054   0.0058   0.0047  -0.0047   0.0038  -0.0039   0.20   10.5
2161 283918.400  -3961766.0456   3349008.9192   3698311.0151   1  26   0.0054   0.0058   0.0047  -0.0047   0.0039  -0.0039   0.40   10.3
2161 283918.600  -3961766.0459   3349008.9211   3698311.0149   1  26   0.0054   0.0058   0.0047  -0.0047   0.0039  -0.0039   0.60   10.9
2161 283918.800  -3961766.0459   3349008.9193   3698311.0152   1  26   0.0055   0.0059   0.0047  -0.0047   0.0039  -0.0039   0.80    9.1
2161 283919.000  -3961766.0438   3349008.9194   3698311.0138   1  26   0.0054   0.0058   0.0047  -0.0047   0.0038  -0.0039   0.00   10.1
2161 283919.200  -3961766.0452   3349008.9204   3698311.0144   1  26   0.0054   0.0058   0.0047  -0.0047   0.0038  -0.0039   0.20   11.9
2161 283919.400  -3961766.0457   3349008.9204   3698311.0149   1  26   0.0054   0.0058   0.0047  -0.0047   0.0039  -0.0039   0.40   10.2
2161 283919.600  -3961766.0445   3349008.9199   3698311.0152   1  26   0.0054   0.0058   0.0047  -0.0047   0.0039  -0.0039   0.60   10.8
2161 283919.800  -3961766.0455   3349008.9213   3698311.0149   1  26   0.0055   0.0059   0.0047  -0.0047   0.0039  -0.0039   0.80    9.8
2161 283920.000  -3961766.0458   3349008.9206   3698311.0150   1  26   0.0054   0.0058   0.0047  -0.0047   0.0038  -0.0039   0.00   12.9
2161 283920.200  -3961766.0458   3349008.9210   3698311.0163   1  26   0.0054   0.0058   0.0047  -0.0047   0.0038  -0.0039   0.20   10.6
2161 283920.400  -3961766.0467   3349008.9219   3698311.0148   1  26   0.0054   0.0058   0.0047  -0.0047   0.0039  -0.0039   0.40    9.7
2161 283920.600  -3961766.0467   3349008.9199   3698311.0145   1  26   0.0054   0.0058   0.0047  -0.0047   0.0039  -0.0039   0.60    9.7
2161 283920.800  -3961766.0444   3349008.9179   3698311.0131   1  26   0.0055   0.0059   0.0047  -0.0047   0.0039  -0.0039   0.80    9.8
2161 283921.000  -3961766.0458   3349008.9207   3698311.0149   1  26   0.0054   0.0058   0.0047  -0.0047   0.0038  -0.0039   0.00    9.3
2161 283921.200  -3961766.0465   3349008.9216   3698311.0152   1  26   0.0054   0.0058   0.0047  -0.0047   0.0038  -0.0039   0.20    9.7
2161 283921.400  -3961766.0465   3349008.9200   3698311.0147   1  26   0.0054   0.0058   0.0047  -0.0047   0.0039  -0.0039   0.40    9.8
2161 283921.600  -3961766.0470   3349008.9220   3698311.0157   1  26   0.0054   0.0058   0.0047  -0.0047   0.0039  -0.0039   0.60   10.9
2161 283921.800  -3961766.0455   3349008.9210   3698311.0145   1  26   0.0055   0.0059   0.0047  -0.0047   0.0039  -0.0039   0.80   12.9
2161 283922.000  -3961766.0476   3349008.9233   3698311.0155   1  26   0.0054   0.0058   0.0047  -0.0047   0.0038  -0.0039   0.00   10.0
2161 283922.200  -3961766.0447   3349008.9197   3698311.0148   1  26   0.0054   0.0058   0.0047  -0.0047   0.0038  -0.0039   0.20   10.9
2161 283922.400  -3961766.0423   3349008.9181   3698311.0123   1  26   0.0054   0.0058   0.0047  -0.0047   0.0039  -0.0039   0.40   10.4
2161 283922.600  -3961766.0436   3349008.9188   3698311.0140   1  26   0.0054   0.0058   0.0047  -0.0047   0.0039  -0.0039   0.60   10.5
2161 283922.800  -3961766.0427   3349008.9177   3698311.0146   1  26   0.0055   0.0059   0.0047  -0.0047   0.0039  -0.0039   0.80    9.0
2161 283923.000  -3961766.0454   3349008.9203   3698311.0143   1  26   0.0054   0.0058   0.0047  -0.0047   0.0038  -0.0039   0.00   10.1
2161 283923.200  -3961766.0454   3349008.9218   3698311.0145   1  26   0.0054   0.0058   0.0047  -0.0047   0.0038  -0.0039   0.20    9.3
2161 283923.400  -3961766.0473   3349008.9228   3698311.0162   1  26   0.0054   0.0058   0.0047  -0.0047   0.0039  -0.0039   0.40    8.3
2161 283923.600  -3961766.0464   3349008.9217   3698311.0148   1  26   0.0054   0.0058   0.0047  -0.0047   0.0039  -0.0039   0.60    9.8
2161 283923.800  -3961766.0462   3349008.9221   3698311.0143   1  26   0.0055   0.0059   0.0047  -0.0047   0.0039  -0.0039   0.80   11.3
2161 283924.000  -3961766.0461   3349008.9219   3698311.0159   1  26   0.0054   0.0058   0.0047  -0.0047   0.0038  -0.0039   0.00    9.4
2161 283924.200  -3961766.0455   3349008.9211   3698311.0156   1  26   0.0054   0.0058   0.0047  -0.0047   0.0038  -0.0039   0.20    8.4
2161 283924.400  -3961766.0446   3349008.9181   3698311.0144   1  26   0.0054   0.0058   0.0047  -0.0047   0.0039  -0.0039   0.40    9.5
2161 283924.600  -3961766.0458   3349008.9211   3698311.0147   1  26   0.0054   0.0058   0.0047  -0.0047   0.0039  -0.0039   0.60    9.5
2161 283924.800  -3961766.0444   3349008.9199   3698311.0143   1  26   0.0055   0.0059   0.0047  -0.0047   0.0039  -0.0039   0.80    9.9
2161 283925.000  -3961766.0464   3349008.9212   3698311.0160   1  26   0.0054   0.0058   0.0047  -0.0047   0.0038  -0.0039   0.00    8.7
2161 283925.200  -3961766.0484   3349008.9238   3698311.0150   1  26   0.0054   0.0058   0.0047  -0.0047   0.0038  -0.0039   0.20    8.5
2161 283925.400  -3961766.0480   3349008.9231   3698311.0155   1  26   0.0054   0.0058   0.0047  -0.0047   0.0039  -0.0039   0.40    8.7
2161 283925.600  -3961766.0494   3349008.9226   3698311.0172   1  26   0.0054   0.0058   0.0047  -0.0047   0.0039  -0.0039   0.60    8.6
2161 283925.800  -3961766.0484   3349008.9222   3698311.0155   1  26   0.0055   0.0059   0.0047  -0.0047   0.0039  -0.0039   0.80   11.2
2161 283926.000  -3961766.0481   3349008.9214   3698311.0165   1  26   0.0054   0.0058   0.0047  -0.0047   0.0038  -0.0039   0.00   11.4
2161 283926.200  -3961766.0485   3349008.9203   3698311.0150   1  26   0.0054   0.0058   0.0047  -0.0047   0.0038  -0.0039   0.20    8.3
2161 283926.400  -3961766.0488   3349008.9217   3698311.0165   1  26   0.0054   0.0058   0.0047  -0.0047   0.0039  -0.0039   0.40    9.3
2161 283926.600  -3961766.0472   3349008.9204   3698311.0150   1  26   0.0054   0.0058   0.0047  -0.0047   0.0039  -0.0039   0.60    7.3
2161 283926.800  -3961766.0485   3349008.9218   3698311.0145   1  26   0.0055   0.0059   0.0047  -0.0047   0.0039  -0.0039   0.80    8.7
2161 283927.000  -3961766.0469   3349008.9228   3698311.0165   1  26   0.0054   0.0058   0.0047  -0.0047   0.0038  -0.0039   0.00   10.7
2161 283927.200  -3961766.0469   3349008.9225   3698311.0156   1  26   0.0054   0.0058   0.0047  -0.0047   0.0038  -0.0039   0.20   11.2
2161 283927.400  -3961766.0494   3349008.9248   3698311.0172   1  26   0.0054   0.0058   0.0047  -0.0047   0.0039  -0.0039   0.40   10.3
2161 283927.600  -3961766.0495   3349008.9249   3698311.0165   1  26   0.0054   0.0058   0.0047  -0.0047   0.0039  -0.0039   0.60    9.1
2161 283927.800  -3961766.0495   3349008.9231   3698311.0157   1  26   0.0055   0.0059   0.0047  -0.0047   0.0039  -0.0039   0.80   11.0
2161 283928.000  -3961766.0480   3349008.9223   3698311.0166   1  26   0.0054   0.0058   0.0047  -0.0047   0.0038  -0.0039   0.00   10.0
2161 283928.200  -3961766.0493   3349008.9231   3698311.0164   1  26   0.0054   0.0058   0.0047  -0.0047   0.0038  -0.0039   0.20   12.0
2161 283928.400  -3961766.0463   3349008.9225   3698311.0157   1  26   0.0054   0.0058   0.0047  -0.0047   0.0039  -0.0039   0.40   11.0
2161 283928.600  -3961766.0456   3349008.9212   3698311.0153   1  26   0.0054   0.0058   0.0047  -0.0047   0.0039  -0.0039   0.60    9.8
2161 283928.800  -3961766.0477   3349008.9236   3698311.0151   1  26   0.0055   0.0059   0.0047  -0.0047   0.0039  -0.0039   0.80   12.7
2161 283929.000  -3961766.0468   3349008.9208   3698311.0145   1  26   0.0054   0.0058   0.0047  -0.0047   0.0038  -0.0039   0.00   10.9
2161 283929.200  -3961766.0466   3349008.9206   3698311.0135   1  26   0.0054   0.0058   0.0047  -0.0047   0.0038  -0.0039   0.20    9.2
2161 283929.400  -3961766.0469   3349008.9217   3698311.0146   1  26   0.0054   0.0058   0.0047  -0.0047   0.0039  -0.0039   0.40   12.0
2161 283929.600  -3961766.0465   3349008.9213   3698311.0147   1  26   0.0054   0.0058   0.0047  -0.0047   0.0039  -0.0039   0.60   11.0
2161 283929.800  -3961766.0480   3349008.9227   3698311.0157   1  26   0.0055   0.0059   0.0047  -0.0047   0.0039  -0.0039   0.80   11.6
2161 283930.000  -3961766.0466   3349008.9222   3698311.0145   1  26   0.0054   0.0058   0.0047  -0.0047   0.0038  -0.0039   0.00   11.0
2161 283930.200  -3961766.0474   3349008.9223   3698311.0148   1  26   0.0054   0.0058   0.0047  -0.0047   0.0038  -0.0039   0.20   11.8
2161 283930.400  -3961766.0461   3349008.9230   3698311.0137   1  26   0.0054   0.0058   0.0047  -0.0047   0.0039  -0.0039   0.40   11.5
2161 283930.600  -3961766.0468   3349008.9224   3698311.0145   1  26   0.0054   0.0058   0.0047  -0.0047   0.0039  -0.0039   0.60   12.5
