% program   : RTKPOST ver.2.4.3 p01
% inp file  : F:\OnlyINS\0609\COM3_210609_063340.obs
% inp file  : F:\OnlyINS\0609\060906.obs
% inp file  : F:\OnlyINS\0609\060906.nav
% obs start : 2021/06/09 06:34:19.2 GPST (week2161 282859.2s)
% obs end   : 2021/06/09 07:37:28.8 GPST (week2161 286648.8s)
% pos mode  : kinematic
% freqs     : L1+L2
% solution  : forward
% elev mask : 15.0 deg
% dynamics  : off
% tidecorr  : off
% ionos opt : broadcast
% tropo opt : off
% ephemeris : broadcast
% navi sys  : gps galileo qzss beidou
% amb res   : instantaneous
% val thres : 3.0
% antenna1  :                       ( 0.0000  0.0000  0.0000)
% antenna2  :                       ( 0.0000  0.0000  0.0000)
% ref pos   : -3961905.0100   3348993.7800   3698211.8200
%
% (x/y/z-ecef=WGS84,Q=1:fix,2:float,3:sbas,4:dgps,5:single,6:ppp,ns=# of satellites)
%  GPST              x-ecef(m)      y-ecef(m)      z-ecef(m)   Q  ns   sdx(m)   sdy(m)   sdz(m)  sdxy(m)  sdyz(m)  sdzx(m) age(s)  ratio
2161 282859.200  -3961862.5132   3348960.3267   3698252.7164   1  18   0.0071   0.0073   0.0045  -0.0057   0.0047  -0.0043   0.20   12.0
2161 282859.400  -3961862.5140   3348960.3289   3698252.7180   1  18   0.0071   0.0074   0.0045  -0.0057   0.0047  -0.0043   0.40   15.3
2161 282859.600  -3961862.5134   3348960.3282   3698252.7176   1  18   0.0071   0.0074   0.0045  -0.0057   0.0047  -0.0043   0.60   15.3
2161 282859.800  -3961862.5114   3348960.3262   3698252.7167   1  18   0.0072   0.0074   0.0045  -0.0058   0.0047  -0.0044   0.80   12.6
2161 282860.000  -3961862.5142   3348960.3289   3698252.7193   1  18   0.0071   0.0073   0.0045  -0.0057   0.0047  -0.0043  -0.00   10.3
2161 282860.200  -3961862.5121   3348960.3291   3698252.7194   1  18   0.0071   0.0073   0.0045  -0.0057   0.0047  -0.0043   0.20   11.2
2161 282860.400  -3961862.5134   3348960.3295   3698252.7197   1  18   0.0071   0.0074   0.0045  -0.0057   0.0047  -0.0043   0.40   12.4
2161 282860.600  -3961862.5139   3348960.3274   3698252.7182   1  18   0.0071   0.0074   0.0045  -0.0057   0.0047  -0.0043   0.60    8.8
2161 282860.800  -3961862.5124   3348960.3287   3698252.7187   1  18   0.0072   0.0074   0.0045  -0.0058   0.0047  -0.0044   0.80    9.6
2161 282861.000  -3961862.5129   3348960.3283   3698252.7191   1  18   0.0071   0.0073   0.0045  -0.0057   0.0047  -0.0043  -0.00   13.3
2161 282861.200  -3961862.5103   3348960.3281   3698252.7176   1  18   0.0071   0.0073   0.0045  -0.0057   0.0047  -0.0043   0.20   14.1
2161 282861.400  -3961862.5122   3348960.3291   3698252.7180   1  18   0.0071   0.0074   0.0045  -0.0057   0.0047  -0.0043   0.40   11.0
2161 282861.600  -3961862.5117   3348960.3271   3698252.7173   1  18   0.0071   0.0074   0.0045  -0.0057   0.0047  -0.0043   0.60   12.5
2161 282861.800  -3961862.5109   3348960.3267   3698252.7160   1  18   0.0071   0.0074   0.0045  -0.0058   0.0047  -0.0044   0.80   12.8
2161 282862.000  -3961862.5121   3348960.3276   3698252.7185   1  18   0.0071   0.0073   0.0045  -0.0057   0.0047  -0.0043  -0.00    9.8
2161 282862.200  -3961862.5093   3348960.3232   3698252.7159   1  18   0.0071   0.0073   0.0045  -0.0057   0.0047  -0.0043   0.20    9.4
2161 282862.400  -3961862.5138   3348960.3282   3698252.7187   1  18   0.0071   0.0074   0.0045  -0.0057   0.0047  -0.0043   0.40   11.0
2161 282862.600  -3961862.5118   3348960.3258   3698252.7177   1  18   0.0071   0.0074   0.0045  -0.0057   0.0047  -0.0043   0.60    9.5
2161 282862.800  -3961862.5134   3348960.3271   3698252.7185   1  18   0.0071   0.0074   0.0045  -0.0058   0.0047  -0.0044   0.80    8.9
2161 282863.000  -3961862.5128   3348960.3263   3698252.7170   1  18   0.0071   0.0073   0.0045  -0.0057   0.0047  -0.0043  -0.00   11.9
2161 282863.200  -3961862.5114   3348960.3276   3698252.7184   1  18   0.0071   0.0073   0.0045  -0.0057   0.0047  -0.0043   0.20   10.3
2161 282863.400  -3961862.5131   3348960.3259   3698252.7182   1  18   0.0071   0.0074   0.0045  -0.0057   0.0047  -0.0043   0.40   10.1
2161 282863.600  -3961862.5116   3348960.3243   3698252.7174   1  18   0.0071   0.0074   0.0045  -0.0057   0.0047  -0.0043   0.60   10.9
2161 282863.800  -3961862.5145   3348960.3277   3698252.7181   1  18   0.0071   0.0074   0.0045  -0.0058   0.0047  -0.0044   0.80   11.1
2161 282864.000  -3961862.5129   3348960.3259   3698252.7178   1  18   0.0071   0.0073   0.0045  -0.0057   0.0047  -0.0043  -0.00   11.9
2161 282864.200  -3961862.5113   3348960.3265   3698252.7184   1  18   0.0071   0.0073   0.0045  -0.0057   0.0047  -0.0043   0.20   10.2
2161 282864.400  -3961862.5133   3348960.3286   3698252.7186   1  18   0.0071   0.0074   0.0045  -0.0057   0.0047  -0.0043   0.40   11.4
2161 282864.600  -3961862.5144   3348960.3288   3698252.7187   1  18   0.0071   0.0074   0.0045  -0.0057   0.0047  -0.0043   0.60   10.0
2161 282864.800  -3961862.5134   3348960.3280   3698252.7190   1  18   0.0071   0.0074   0.0045  -0.0058   0.0047  -0.0044   0.80   11.0
2161 282865.000  -3961862.5114   3348960.3260   3698252.7179   1  18   0.0071   0.0073   0.0045  -0.0057   0.0047  -0.0043  -0.00   11.5
2161 282865.200  -3961862.5104   3348960.3259   3698252.7173   1  18   0.0071   0.0073   0.0045  -0.0057   0.0047  -0.0043   0.20   13.1
2161 282865.400  -3961862.5099   3348960.3265   3698252.7161   1  18   0.0071   0.0074   0.0045  -0.0057   0.0047  -0.0043   0.40   11.5
2161 282865.600  -3961862.5150   3348960.3286   3698252.7179   1  18   0.0071   0.0074   0.0045  -0.0057   0.0047  -0.0043   0.60   13.8
2161 282865.800  -3961862.5131   3348960.3280   3698252.7173   1  18   0.0071   0.0074   0.0045  -0.0058   0.0047  -0.0044   0.80   12.8
2161 282866.000  -3961862.5132   3348960.3289   3698252.7191   1  18   0.0071   0.0073   0.0045  -0.0057   0.0047  -0.0043  -0.00   10.6
2161 282866.200  -3961862.5144   3348960.3289   3698252.7194   1  18   0.0071   0.0073   0.0045  -0.0057   0.0047  -0.0043   0.20   12.1
2161 282866.400  -3961862.5121   3348960.3283   3698252.7178   1  18   0.0071   0.0074   0.0045  -0.0057   0.0047  -0.0043   0.40   11.2
2161 282866.600  -3961862.5129   3348960.3275   3698252.7180   1  18   0.0071   0.0074   0.0045  -0.0057   0.0047  -0.0043   0.60   11.0
2161 282866.800  -3961862.5115   3348960.3264   3698252.7172   1  18   0.0071   0.0074   0.0045  -0.0058   0.0047  -0.0044   0.80   11.4
2161 282867.000  -3961862.5122   3348960.3232   3698252.7167   1  18   0.0071   0.0073   0.0045  -0.0057   0.0047  -0.0043  -0.00   12.6
2161 282867.200  -3961862.5096   3348960.3242   3698252.7182   1  18   0.0071   0.0073   0.0045  -0.0057   0.0047  -0.0043   0.20   11.3
2161 282867.400  -3961862.5088   3348960.3239   3698252.7164   1  18   0.0071   0.0074   0.0045  -0.0057   0.0047  -0.0043   0.40   14.7
2161 282867.600  -3961862.5108   3348960.3252   3698252.7178   1  18   0.0071   0.0074   0.0045  -0.0057   0.0047  -0.0043   0.60   12.7
2161 282867.800  -3961862.5106   3348960.3267   3698252.7173   1  18   0.0071   0.0074   0.0045  -0.0058   0.0047  -0.0044   0.80   13.4
2161 282868.000  -3961862.5111   3348960.3244   3698252.7175   1  18   0.0071   0.0073   0.0045  -0.0057   0.0047  -0.0043  -0.00   14.2
2161 282868.200  -3961862.5112   3348960.3252   3698252.7172   1  18   0.0071   0.0073   0.0045  -0.0057   0.0047  -0.0043   0.20   13.5
2161 282868.400  -3961862.5113   3348960.3260   3698252.7164   1  18   0.0071   0.0074   0.0045  -0.0057   0.0047  -0.0043   0.40   12.2
2161 282868.600  -3961862.5096   3348960.3238   3698252.7153   1  18   0.0071   0.0074   0.0045  -0.0057   0.0047  -0.0043   0.60   10.7
2161 282868.800  -3961862.5137   3348960.3273   3698252.7173   1  18   0.0071   0.0074   0.0045  -0.0058   0.0047  -0.0044   0.80   10.4
2161 282869.000  -3961862.5108   3348960.3240   3698252.7165   1  18   0.0071   0.0073   0.0045  -0.0057   0.0047  -0.0043  -0.00   10.0
2161 282869.200  -3961862.5118   3348960.3265   3698252.7169   1  18   0.0071   0.0073   0.0045  -0.0057   0.0047  -0.0043   0.20    9.8
2161 282869.400  -3961862.5141   3348960.3257   3698252.7169   1  18   0.0071   0.0074   0.0045  -0.0057   0.0047  -0.0043   0.40    9.7
2161 282869.600  -3961862.5104   3348960.3250   3698252.7158   1  18   0.0071   0.0074   0.0045  -0.0057   0.0047  -0.0043   0.60   10.1
2161 282869.800  -3961862.5106   3348960.3255   3698252.7168   1  18   0.0071   0.0074   0.0045  -0.0058   0.0047  -0.0044   0.80   10.8
2161 282870.000  -3961862.5083   3348960.3226   3698252.7153   1  18   0.0071   0.0073   0.0045  -0.0057   0.0047  -0.0043  -0.00   11.3
2161 282870.200  -3961862.5080   3348960.3251   3698252.7166   1  18   0.0071   0.0073   0.0045  -0.0057   0.0047  -0.0043   0.20    9.5
2161 282870.400  -3961862.5113   3348960.3233   3698252.7162   1  18   0.0071   0.0074   0.0045  -0.0057   0.0047  -0.0043   0.40   10.3
2161 282870.600  -3961862.5117   3348960.3244   3698252.7176   1  18   0.0071   0.0074   0.0045  -0.0057   0.0047  -0.0043   0.60   12.4
2161 282870.800  -3961862.5103   3348960.3250   3698252.7174   1  18   0.0071   0.0074   0.0045  -0.0058   0.0047  -0.0044   0.80   10.5
2161 282871.000  -3961862.5114   3348960.3240   3698252.7154   1  18   0.0071   0.0073   0.0045  -0.0057   0.0047  -0.0043  -0.00   10.0
2161 282871.200  -3961862.5138   3348960.3250   3698252.7170   1  18   0.0071   0.0073   0.0045  -0.0057   0.0047  -0.0043   0.20    9.5
2161 282871.400  -3961862.5141   3348960.3243   3698252.7169   1  18   0.0071   0.0074   0.0045  -0.0057   0.0047  -0.0043   0.40    9.0
2161 282871.600  -3961862.5136   3348960.3258   3698252.7175   1  18   0.0071   0.0074   0.0045  -0.0057   0.0047  -0.0043   0.60   10.8
2161 282871.800  -3961862.5140   3348960.3251   3698252.7175   1  18   0.0071   0.0074   0.0045  -0.0058   0.0047  -0.0044   0.80   10.3
2161 282872.000  -3961862.5134   3348960.3244   3698252.7177   1  18   0.0071   0.0073   0.0045  -0.0057   0.0047  -0.0043  -0.00   11.7
2161 282872.200  -3961862.5122   3348960.3254   3698252.7183   1  18   0.0071   0.0073   0.0045  -0.0057   0.0047  -0.0043   0.20   11.1
2161 282872.400  -3961862.5124   3348960.3235   3698252.7165   1  18   0.0071   0.0074   0.0045  -0.0057   0.0047  -0.0043   0.40   14.8
2161 282872.600  -3961862.5137   3348960.3237   3698252.7167   1  18   0.0071   0.0074   0.0045  -0.0057   0.0047  -0.0043   0.60   10.1
2161 282872.800  -3961862.5142   3348960.3269   3698252.7187   1  18   0.0071   0.0074   0.0045  -0.0058   0.0047  -0.0044   0.80   11.9
2161 282873.000  -3961862.5126   3348960.3253   3698252.7168   1  18   0.0071   0.0073   0.0045  -0.0057   0.0047  -0.0043  -0.00   12.0
2161 282873.200  -3961862.5108   3348960.3254   3698252.7170   1  18   0.0071   0.0073   0.0045  -0.0057   0.0047  -0.0043   0.20   11.3
2161 282873.400  -3961862.5129   3348960.3263   3698252.7168   1  18   0.0071   0.0074   0.0045  -0.0057   0.0047  -0.0043   0.40   11.2
2161 282873.600  -3961862.5129   3348960.3262   3698252.7169   1  18   0.0071   0.0074   0.0045  -0.0057   0.0047  -0.0043   0.60   11.5
2161 282873.800  -3961862.5117   3348960.3248   3698252.7169   1  18   0.0071   0.0074   0.0045  -0.0058   0.0047  -0.0044   0.80   12.8
2161 282874.000  -3961862.5128   3348960.3215   3698252.7160   1  18   0.0071   0.0073   0.0045  -0.0057   0.0047  -0.0043  -0.00   11.5
2161 282874.200  -3961862.5119   3348960.3238   3698252.7165   1  18   0.0071   0.0073   0.0045  -0.0057   0.0047  -0.0043   0.20   10.1
2161 282874.400  -3961862.5094   3348960.3218   3698252.7157   1  18   0.0071   0.0074   0.0045  -0.0057   0.0047  -0.0043   0.40    9.6
2161 282874.600  -3961862.5133   3348960.3248   3698252.7169   1  18   0.0071   0.0074   0.0045  -0.0057   0.0047  -0.0043   0.60    9.4
2161 282874.800  -3961862.5099   3348960.3239   3698252.7166   1  18   0.0071   0.0074   0.0045  -0.0058   0.0047  -0.0044   0.80    8.9
2161 282875.000  -3961862.5143   3348960.3234   3698252.7164   1  18   0.0071   0.0073   0.0045  -0.0057   0.0047  -0.0043  -0.00   10.1
2161 282875.200  -3961862.5130   3348960.3252   3698252.7164   1  18   0.0071   0.0073   0.0045  -0.0057   0.0047  -0.0043   0.20   10.3
2161 282875.400  -3961862.5113   3348960.3226   3698252.7160   1  18   0.0071   0.0074   0.0045  -0.0057   0.0047  -0.0043   0.40    9.6
2161 282875.600  -3961862.5115   3348960.3227   3698252.7167   1  18   0.0071   0.0074   0.0045  -0.0057   0.0047  -0.0043   0.60    9.3
2161 282875.800  -3961862.5125   3348960.3235   3698252.7171   1  18   0.0071   0.0074   0.0045  -0.0058   0.0047  -0.0044   0.80    9.0
2161 282876.000  -3961862.5124   3348960.3233   3698252.7165   1  18   0.0071   0.0073   0.0045  -0.0057   0.0047  -0.0043  -0.00   11.0
2161 282876.200  -3961862.5117   3348960.3249   3698252.7164   1  18   0.0071   0.0073   0.0045  -0.0057   0.0047  -0.0043   0.20   10.8
2161 282876.400  -3961862.5155   3348960.3248   3698252.7160   1  18   0.0071   0.0074   0.0045  -0.0057   0.0047  -0.0043   0.40   10.0
2161 282876.600  -3961862.5139   3348960.3223   3698252.7158   1  18   0.0071   0.0074   0.0045  -0.0057   0.0047  -0.0043   0.60   10.4
2161 282876.800  -3961862.5113   3348960.3232   3698252.7161   1  18   0.0071   0.0074   0.0045  -0.0057   0.0047  -0.0044   0.80   10.1
2161 282877.000  -3961862.5106   3348960.3210   3698252.7158   1  18   0.0070   0.0073   0.0045  -0.0057   0.0047  -0.0043  -0.00   10.8
2161 282877.200  -3961862.5079   3348960.3211   3698252.7146   1  18   0.0071   0.0073   0.0045  -0.0057   0.0047  -0.0043   0.20   12.6
2161 282877.400  -3961862.5096   3348960.3217   3698252.7158   1  18   0.0071   0.0074   0.0045  -0.0057   0.0047  -0.0043   0.40   10.9
2161 282877.600  -3961862.5095   3348960.3212   3698252.7156   1  18   0.0071   0.0074   0.0045  -0.0057   0.0047  -0.0043   0.60   11.3
2161 282877.800  -3961862.5060   3348960.3184   3698252.7141   1  18   0.0071   0.0074   0.0045  -0.0057   0.0047  -0.0044   0.80   11.1
2161 282878.000  -3961862.5138   3348960.3215   3698252.7150   1  18   0.0070   0.0073   0.0045  -0.0057   0.0047  -0.0043  -0.00    9.7
2161 282878.200  -3961862.5101   3348960.3213   3698252.7148   1  18   0.0071   0.0073   0.0045  -0.0057   0.0047  -0.0043   0.20   11.5
2161 282878.400  -3961862.5132   3348960.3203   3698252.7148   1  18   0.0071   0.0074   0.0045  -0.0057   0.0047  -0.0043   0.40   11.2
2161 282878.600  -3961862.5094   3348960.3211   3698252.7155   1  18   0.0071   0.0074   0.0045  -0.0057   0.0047  -0.0043   0.60   12.3
2161 282878.800  -3961862.5095   3348960.3214   3698252.7145   1  18   0.0071   0.0074   0.0045  -0.0057   0.0047  -0.0044   0.80   11.3
2161 282879.000  -3961862.5127   3348960.3226   3698252.7168   1  18   0.0070   0.0073   0.0045  -0.0057   0.0047  -0.0043  -0.00   13.6
2161 282879.200  -3961862.5100   3348960.3201   3698252.7143   1  18   0.0071   0.0073   0.0045  -0.0057   0.0047  -0.0043   0.20   12.1
2161 282879.400  -3961862.5065   3348960.3192   3698252.7135   1  18   0.0071   0.0074   0.0045  -0.0057   0.0047  -0.0043   0.40   12.0
2161 282879.600  -3961862.5098   3348960.3212   3698252.7152   1  18   0.0071   0.0074   0.0045  -0.0057   0.0047  -0.0043   0.60   12.6
2161 282879.800  -3961862.5125   3348960.3243   3698252.7157   1  18   0.0071   0.0074   0.0045  -0.0057   0.0047  -0.0044   0.80   13.2
2161 282880.000  -3961862.5138   3348960.3229   3698252.7170   1  18   0.0070   0.0073   0.0045  -0.0057   0.0047  -0.0043  -0.00   13.4
2161 282880.200  -3961862.5104   3348960.3205   3698252.7157   1  18   0.0071   0.0073   0.0045  -0.0057   0.0047  -0.0043   0.20   13.3
2161 282880.400  -3961862.5117   3348960.3210   3698252.7164   1  18   0.0071   0.0074   0.0045  -0.0057   0.0047  -0.0043   0.40   11.5
2161 282880.600  -3961862.5101   3348960.3221   3698252.7166   1  18   0.0071   0.0074   0.0045  -0.0057   0.0047  -0.0043   0.60   14.9
2161 282880.800  -3961862.5100   3348960.3225   3698252.7166   1  18   0.0071   0.0074   0.0045  -0.0057   0.0047  -0.0044   0.80   12.2
2161 282881.000  -3961862.5125   3348960.3205   3698252.7168   1  18   0.0070   0.0073   0.0045  -0.0057   0.0047  -0.0043  -0.00   11.2
2161 282881.200  -3961862.5101   3348960.3197   3698252.7160   1  18   0.0071   0.0073   0.0045  -0.0057   0.0047  -0.0043   0.20   12.8
2161 282881.400  -3961862.5103   3348960.3189   3698252.7149   1  18   0.0071   0.0074   0.0045  -0.0057   0.0047  -0.0043   0.40   11.4
2161 282881.600  -3961862.5100   3348960.3170   3698252.7149   1  18   0.0071   0.0074   0.0045  -0.0057   0.0047  -0.0043   0.60    9.2
2161 282881.800  -3961862.5087   3348960.3190   3698252.7156   1  18   0.0071   0.0074   0.0045  -0.0057   0.0047  -0.0044   0.80   10.7
2161 282882.000  -3961862.5075   3348960.3184   3698252.7129   1  18   0.0070   0.0073   0.0045  -0.0057   0.0047  -0.0043  -0.00   10.8
2161 282882.200  -3961862.5066   3348960.3194   3698252.7130   1  18   0.0071   0.0073   0.0045  -0.0057   0.0047  -0.0043   0.20   13.0
2161 282882.400  -3961862.5102   3348960.3208   3698252.7134   1  18   0.0071   0.0074   0.0045  -0.0057   0.0047  -0.0043   0.40   12.0
2161 282882.600  -3961862.5109   3348960.3204   3698252.7140   1  18   0.0071   0.0074   0.0045  -0.0057   0.0047  -0.0043   0.60   12.8
2161 282882.800  -3961862.5109   3348960.3191   3698252.7133   1  18   0.0071   0.0074   0.0045  -0.0057   0.0047  -0.0044   0.80   12.4
2161 282883.000  -3961862.5113   3348960.3188   3698252.7149   1  18   0.0070   0.0073   0.0045  -0.0057   0.0047  -0.0043  -0.00   11.7
2161 282883.200  -3961862.5139   3348960.3206   3698252.7151   1  18   0.0071   0.0073   0.0045  -0.0057   0.0047  -0.0043   0.20   11.9
2161 282883.400  -3961862.5124   3348960.3206   3698252.7147   1  18   0.0071   0.0074   0.0045  -0.0057   0.0047  -0.0043   0.40   11.4
2161 282883.600  -3961862.5133   3348960.3199   3698252.7149   1  18   0.0071   0.0074   0.0045  -0.0057   0.0047  -0.0043   0.60   12.9
2161 282883.800  -3961862.5113   3348960.3193   3698252.7136   1  18   0.0071   0.0074   0.0045  -0.0057   0.0047  -0.0044   0.80   11.5
2161 282884.000  -3961862.5141   3348960.3228   3698252.7155   1  18   0.0070   0.0073   0.0045  -0.0057   0.0047  -0.0043  -0.00   11.7
2161 282884.200  -3961862.5113   3348960.3229   3698252.7163   1  18   0.0071   0.0073   0.0045  -0.0057   0.0047  -0.0043   0.20   11.1
2161 282884.400  -3961862.5140   3348960.3229   3698252.7169   1  18   0.0071   0.0074   0.0045  -0.0057   0.0047  -0.0043   0.40   10.8
2161 282884.600  -3961862.5133   3348960.3231   3698252.7159   1  18   0.0071   0.0074   0.0045  -0.0057   0.0047  -0.0043   0.60   10.1
2161 282884.800  -3961862.5131   3348960.3229   3698252.7158   1  18   0.0071   0.0074   0.0045  -0.0057   0.0047  -0.0044   0.80    9.9
2161 282885.000  -3961862.5136   3348960.3223   3698252.7150   1  18   0.0070   0.0073   0.0045  -0.0057   0.0047  -0.0043  -0.00   11.1
2161 282885.200  -3961862.5128   3348960.3230   3698252.7151   1  18   0.0070   0.0073   0.0045  -0.0057   0.0047  -0.0043   0.20   12.2
2161 282885.400  -3961862.5105   3348960.3212   3698252.7155   1  18   0.0071   0.0074   0.0045  -0.0057   0.0047  -0.0043   0.40   11.2
2161 282885.600  -3961862.5122   3348960.3215   3698252.7147   1  18   0.0071   0.0074   0.0045  -0.0057   0.0047  -0.0043   0.60   14.0
2161 282885.800  -3961862.5107   3348960.3217   3698252.7145   1  18   0.0071   0.0074   0.0045  -0.0057   0.0047  -0.0044   0.80   13.4
2161 282886.000  -3961862.5124   3348960.3200   3698252.7141   1  18   0.0070   0.0073   0.0045  -0.0057   0.0047  -0.0043  -0.00   13.1
2161 282886.200  -3961862.5121   3348960.3208   3698252.7136   1  18   0.0070   0.0073   0.0045  -0.0057   0.0047  -0.0043   0.20   12.2
2161 282886.400  -3961862.5122   3348960.3189   3698252.7130   1  18   0.0071   0.0074   0.0045  -0.0057   0.0047  -0.0043   0.40   11.6
2161 282886.600  -3961862.5145   3348960.3213   3698252.7140   1  18   0.0071   0.0074   0.0045  -0.0057   0.0047  -0.0043   0.60   10.4
2161 282886.800  -3961862.5109   3348960.3221   3698252.7130   1  18   0.0071   0.0074   0.0045  -0.0057   0.0047  -0.0044   0.80    9.1
2161 282887.000  -3961862.5125   3348960.3224   3698252.7160   1  18   0.0070   0.0073   0.0045  -0.0057   0.0047  -0.0043  -0.00   10.2
2161 282887.200  -3961862.5083   3348960.3173   3698252.7139   1  18   0.0070   0.0073   0.0045  -0.0057   0.0047  -0.0043   0.20    9.7
2161 282887.400  -3961862.5112   3348960.3217   3698252.7151   1  18   0.0071   0.0074   0.0045  -0.0057   0.0047  -0.0043   0.40   10.1
2161 282887.600  -3961862.5125   3348960.3230   3698252.7162   1  18   0.0071   0.0074   0.0045  -0.0057   0.0047  -0.0043   0.60    9.0
2161 282887.800  -3961862.5102   3348960.3208   3698252.7149   1  18   0.0071   0.0074   0.0045  -0.0057   0.0047  -0.0044   0.80    9.4
2161 282888.000  -3961862.5097   3348960.3186   3698252.7147   1  18   0.0070   0.0073   0.0045  -0.0057   0.0047  -0.0043  -0.00   10.8
2161 282888.200  -3961862.5109   3348960.3191   3698252.7143   1  18   0.0070   0.0073   0.0045  -0.0057   0.0047  -0.0043   0.20    8.9
2161 282888.400  -3961862.5117   3348960.3187   3698252.7146   1  18   0.0071   0.0074   0.0045  -0.0057   0.0047  -0.0043   0.40    9.0
2161 282888.600  -3961862.5117   3348960.3210   3698252.7148   1  18   0.0071   0.0074   0.0045  -0.0057   0.0047  -0.0043   0.60   10.7
2161 282888.800  -3961862.5132   3348960.3198   3698252.7140   1  18   0.0071   0.0074   0.0045  -0.0057   0.0047  -0.0044   0.80    9.3
2161 282889.000  -3961862.5089   3348960.3200   3698252.7141   1  18   0.0070   0.0073   0.0045  -0.0057   0.0047  -0.0043  -0.00   10.6
2161 282889.200  -3961862.5113   3348960.3230   3698252.7156   1  18   0.0070   0.0073   0.0045  -0.0057   0.0047  -0.0043   0.20   10.5
2161 282889.400  -3961862.5099   3348960.3231   3698252.7142   1  18   0.0071   0.0074   0.0045  -0.0057   0.0047  -0.0043   0.40   10.1
2161 282889.600  -3961862.5094   3348960.3227   3698252.7136   1  18   0.0071   0.0074   0.0045  -0.0057   0.0047  -0.0043   0.60   12.1
2161 282889.800  -3961862.5076   3348960.3235   3698252.7137   1  18   0.0071   0.0074   0.0045  -0.0057   0.0047  -0.0044   0.80   10.9
2161 282890.000  -3961862.5093   3348960.3217   3698252.7157   1  18   0.0070   0.0073   0.0045  -0.0057   0.0047  -0.0043  -0.00   10.6
2161 282890.200  -3961862.5082   3348960.3210   3698252.7143   1  18   0.0070   0.0073   0.0045  -0.0057   0.0047  -0.0043   0.20   12.0
2161 282890.400  -3961862.5098   3348960.3229   3698252.7152   1  18   0.0071   0.0074   0.0045  -0.0057   0.0047  -0.0043   0.40   10.7
2161 282890.600  -3961862.5088   3348960.3200   3698252.7140   1  18   0.0071   0.0074   0.0045  -0.0057   0.0047  -0.0043   0.60   11.1
2161 282890.800  -3961862.5072   3348960.3203   3698252.7125   1  18   0.0071   0.0074   0.0045  -0.0057   0.0047  -0.0044   0.80   11.1
2161 282891.000  -3961862.5065   3348960.3153   3698252.7135   1  18   0.0070   0.0073   0.0045  -0.0057   0.0047  -0.0043  -0.00   10.3
2161 282891.200  -3961862.5080   3348960.3183   3698252.7141   1  18   0.0070   0.0073   0.0045  -0.0057   0.0047  -0.0043   0.20    9.3
2161 282891.400  -3961862.5047   3348960.3170   3698252.7114   1  18   0.0071   0.0074   0.0045  -0.0057   0.0047  -0.0043   0.40   10.0
2161 282891.600  -3961862.5060   3348960.3180   3698252.7137   1  18   0.0071   0.0074   0.0045  -0.0057   0.0047  -0.0043   0.60   10.0
2161 282891.800  -3961862.5069   3348960.3189   3698252.7136   1  18   0.0071   0.0074   0.0045  -0.0057   0.0047  -0.0044   0.80    9.3
2161 282892.000  -3961862.5081   3348960.3206   3698252.7141   1  18   0.0070   0.0073   0.0045  -0.0057   0.0047  -0.0043  -0.00   10.9
2161 282892.200  -3961862.5075   3348960.3177   3698252.7126   1  18   0.0070   0.0073   0.0045  -0.0057   0.0047  -0.0043   0.20   10.9
2161 282892.400  -3961862.5086   3348960.3192   3698252.7132   1  18   0.0071   0.0074   0.0045  -0.0057   0.0047  -0.0043   0.40   10.3
2161 282892.600  -3961862.5085   3348960.3193   3698252.7133   1  18   0.0071   0.0074   0.0045  -0.0057   0.0047  -0.0043   0.60   10.4
2161 282892.800  -3961862.5101   3348960.3191   3698252.7142   1  18   0.0071   0.0074   0.0045  -0.0057   0.0047  -0.0044   0.80   11.1
2161 282893.000  -3961862.5104   3348960.3223   3698252.7147   1  18   0.0070   0.0073   0.0045  -0.0057   0.0047  -0.0043  -0.00   11.0
2161 282893.200  -3961862.5092   3348960.3200   3698252.7146   1  18   0.0070   0.0073   0.0045  -0.0057   0.0047  -0.0043   0.20   11.1
2161 282893.400  -3961862.5089   3348960.3199   3698252.7134   1  18   0.0071   0.0074   0.0045  -0.0057   0.0047  -0.0043   0.40   11.5
2161 282893.600  -3961862.5068   3348960.3187   3698252.7140   1  18   0.0071   0.0074   0.0045  -0.0057   0.0047  -0.0043   0.60   11.6
2161 282893.800  -3961862.5069   3348960.3201   3698252.7136   1  18   0.0071   0.0074   0.0045  -0.0057   0.0047  -0.0044   0.80   11.2
2161 282894.000  -3961862.5089   3348960.3224   3698252.7140   1  18   0.0070   0.0073   0.0045  -0.0057   0.0047  -0.0043  -0.00   11.2
2161 282894.200  -3961862.5102   3348960.3218   3698252.7148   1  18   0.0070   0.0073   0.0045  -0.0057   0.0047  -0.0043   0.20   10.3
2161 282894.400  -3961862.5088   3348960.3228   3698252.7147   1  18   0.0071   0.0074   0.0045  -0.0057   0.0047  -0.0043   0.40   12.2
2161 282894.600  -3961862.5057   3348960.3195   3698252.7130   1  18   0.0071   0.0074   0.0045  -0.0057   0.0047  -0.0043   0.60   12.8
2161 282894.800  -3961862.5081   3348960.3195   3698252.7128   1  18   0.0071   0.0074   0.0045  -0.0057   0.0047  -0.0044   0.80   11.3
2161 282895.000  -3961862.5070   3348960.3228   3698252.7149   1  18   0.0070   0.0073   0.0045  -0.0057   0.0047  -0.0043  -0.00    8.7
2161 282895.200  -3961862.5063   3348960.3215   3698252.7144   1  18   0.0070   0.0073   0.0045  -0.0057   0.0047  -0.0043   0.20    9.9
2161 282895.400  -3961862.5101   3348960.3223   3698252.7146   1  18   0.0071   0.0074   0.0045  -0.0057   0.0047  -0.0043   0.40    9.4
2161 282895.600  -3961862.5115   3348960.3239   3698252.7159   1  18   0.0071   0.0074   0.0045  -0.0057   0.0047  -0.0043   0.60    9.9
2161 282895.800  -3961862.5111   3348960.3242   3698252.7163   1  18   0.0071   0.0074   0.0045  -0.0057   0.0047  -0.0044   0.80   11.0
2161 282896.000  -3961862.5116   3348960.3225   3698252.7155   1  18   0.0070   0.0073   0.0045  -0.0057   0.0047  -0.0043  -0.00   10.7
2161 282896.200  -3961862.5082   3348960.3205   3698252.7134   1  18   0.0070   0.0073   0.0045  -0.0057   0.0047  -0.0043   0.20   11.3
2161 282896.400  -3961862.5113   3348960.3214   3698252.7150   1  18   0.0071   0.0074   0.0045  -0.0057   0.0047  -0.0043   0.40   11.8
2161 282896.600  -3961862.5110   3348960.3218   3698252.7146   1  18   0.0071   0.0074   0.0045  -0.0057   0.0047  -0.0043   0.60   11.9
2161 282896.800  -3961862.5108   3348960.3219   3698252.7145   1  18   0.0071   0.0074   0.0045  -0.0057   0.0047  -0.0044   0.80   12.7
2161 282897.000  -3961862.5131   3348960.3266   3698252.7171   1  18   0.0070   0.0073   0.0045  -0.0057   0.0047  -0.0043  -0.00    9.2
2161 282897.200  -3961862.5102   3348960.3248   3698252.7155   1  18   0.0070   0.0073   0.0045  -0.0057   0.0047  -0.0043   0.20   10.6
2161 282897.400  -3961862.5099   3348960.3230   3698252.7157   1  18   0.0071   0.0074   0.0045  -0.0057   0.0047  -0.0043   0.40    8.7
2161 282897.600  -3961862.5113   3348960.3241   3698252.7161   1  18   0.0071   0.0074   0.0045  -0.0057   0.0047  -0.0043   0.60    8.2
2161 282897.800  -3961862.5090   3348960.3240   3698252.7166   1  18   0.0071   0.0074   0.0045  -0.0057   0.0047  -0.0044   0.80    7.5
2161 282898.000  -3961862.5111   3348960.3236   3698252.7166   1  18   0.0070   0.0073   0.0045  -0.0057   0.0047  -0.0043  -0.00    8.4
2161 282898.200  -3961862.5058   3348960.3210   3698252.7150   1  18   0.0070   0.0073   0.0045  -0.0057   0.0047  -0.0043   0.20    7.9
2161 282898.400  -3961862.5121   3348960.3223   3698252.7137   1  18   0.0071   0.0074   0.0045  -0.0057   0.0047  -0.0043   0.40    8.6
2161 282898.600  -3961862.5103   3348960.3240   3698252.7134   1  18   0.0071   0.0074   0.0045  -0.0057   0.0047  -0.0043   0.60    9.6
2161 282898.800  -3961862.5078   3348960.3224   3698252.7141   1  18   0.0071   0.0074   0.0045  -0.0057   0.0047  -0.0044   0.80    9.7
2161 282899.000  -3961862.5077   3348960.3223   3698252.7152   1  18   0.0070   0.0073   0.0045  -0.0057   0.0047  -0.0043  -0.00    8.5
2161 282899.200  -3961862.5065   3348960.3197   3698252.7140   1  18   0.0070   0.0073   0.0045  -0.0057   0.0047  -0.0043   0.20    8.5
2161 282899.400  -3961862.5055   3348960.3198   3698252.7155   1  18   0.0071   0.0073   0.0045  -0.0057   0.0047  -0.0043   0.40    8.8
2161 282899.600  -3961862.5092   3348960.3224   3698252.7148   1  18   0.0071   0.0074   0.0045  -0.0057   0.0047  -0.0043   0.60    9.1
2161 282899.800  -3961862.5065   3348960.3200   3698252.7154   1  18   0.0071   0.0074   0.0045  -0.0057   0.0047  -0.0044   0.80    9.6
2161 282900.000  -3961862.5084   3348960.3212   3698252.7151   1  18   0.0070   0.0073   0.0045  -0.0057   0.0047  -0.0043  -0.00    9.7
2161 282900.200  -3961862.5094   3348960.3212   3698252.7163   1  18   0.0070   0.0073   0.0045  -0.0057   0.0047  -0.0043   0.20    8.8
2161 282900.400  -3961862.5107   3348960.3218   3698252.7139   1  18   0.0071   0.0073   0.0045  -0.0057   0.0047  -0.0043   0.40   10.2
2161 282900.600  -3961862.5094   3348960.3189   3698252.7117   1  18   0.0071   0.0074   0.0045  -0.0057   0.0047  -0.0043   0.60    9.1
2161 282900.800  -3961862.5106   3348960.3228   3698252.7165   1  18   0.0071   0.0074   0.0045  -0.0057   0.0047  -0.0044   0.80    9.7
2161 282901.000  -3961862.5076   3348960.3197   3698252.7116   1  18   0.0070   0.0073   0.0045  -0.0057   0.0047  -0.0043  -0.00   10.8
2161 282901.200  -3961862.5078   3348960.3210   3698252.7122   1  18   0.0070   0.0073   0.0045  -0.0057   0.0047  -0.0043   0.20    8.2
2161 282901.400  -3961862.5084   3348960.3209   3698252.7122   1  18   0.0071   0.0073   0.0045  -0.0057   0.0047  -0.0043   0.40    9.7
2161 282901.600  -3961862.5049   3348960.3194   3698252.7116   1  18   0.0071   0.0074   0.0045  -0.0057   0.0047  -0.0043   0.60    9.7
2161 282901.800  -3961862.5039   3348960.3176   3698252.7120   1  18   0.0071   0.0074   0.0045  -0.0057   0.0047  -0.0044   0.80   10.2
2161 282902.000  -3961862.5079   3348960.3220   3698252.7137   1  18   0.0070   0.0073   0.0045  -0.0057   0.0047  -0.0043  -0.00   11.0
2161 282902.200  -3961862.5076   3348960.3202   3698252.7123   1  18   0.0070   0.0073   0.0045  -0.0057   0.0047  -0.0043   0.20    9.7
2161 282902.400  -3961862.5092   3348960.3205   3698252.7134   1  18   0.0071   0.0073   0.0045  -0.0057   0.0047  -0.0043   0.40   10.7
2161 282902.600  -3961862.5108   3348960.3239   3698252.7151   1  18   0.0071   0.0074   0.0045  -0.0057   0.0047  -0.0043   0.60    9.1
2161 282902.800  -3961862.5102   3348960.3218   3698252.7134   1  18   0.0071   0.0074   0.0045  -0.0057   0.0047  -0.0044   0.80   10.9
2161 282903.000  -3961862.5102   3348960.3234   3698252.7144   1  18   0.0070   0.0073   0.0045  -0.0057   0.0047  -0.0043  -0.00    9.8
2161 282903.200  -3961862.5083   3348960.3213   3698252.7142   1  18   0.0070   0.0073   0.0045  -0.0057   0.0047  -0.0043   0.20   11.3
2161 282903.400  -3961862.5104   3348960.3229   3698252.7141   1  18   0.0071   0.0073   0.0045  -0.0057   0.0047  -0.0043   0.40   10.0
2161 282903.600  -3961862.5079   3348960.3198   3698252.7125   1  18   0.0071   0.0074   0.0045  -0.0057   0.0047  -0.0043   0.60   11.9
2161 282903.800  -3961862.5093   3348960.3198   3698252.7136   1  18   0.0071   0.0074   0.0045  -0.0057   0.0047  -0.0044   0.80   10.5
2161 282904.000  -3961862.5102   3348960.3201   3698252.7123   1  18   0.0070   0.0073   0.0045  -0.0057   0.0047  -0.0043  -0.00   11.6
2161 282904.200  -3961862.5097   3348960.3201   3698252.7114   1  18   0.0070   0.0073   0.0045  -0.0057   0.0047  -0.0043   0.20   11.3
2161 282904.400  -3961862.5068   3348960.3192   3698252.7111   1  18   0.0071   0.0073   0.0045  -0.0057   0.0047  -0.0043   0.40    9.8
2161 282904.600  -3961862.5079   3348960.3214   3698252.7129   1  18   0.0071   0.0074   0.0045  -0.0057   0.0047  -0.0043   0.60   10.3
2161 282904.800  -3961862.5074   3348960.3212   3698252.7111   1  18   0.0073   0.0076   0.0047  -0.0059   0.0049  -0.0046   0.80    9.9
2161 282905.000  -3961862.5090   3348960.3187   3698252.7123   1  18   0.0072   0.0075   0.0046  -0.0059   0.0049  -0.0045  -0.00   13.3
2161 282905.200  -3961862.5092   3348960.3201   3698252.7118   1  18   0.0070   0.0073   0.0045  -0.0057   0.0047  -0.0043   0.20   12.8
2161 282905.400  -3961862.5110   3348960.3210   3698252.7133   1  18   0.0071   0.0073   0.0045  -0.0057   0.0047  -0.0043   0.40   11.2
2161 282905.600  -3961862.5085   3348960.3194   3698252.7121   1  18   0.0071   0.0074   0.0045  -0.0057   0.0047  -0.0043   0.60   12.3
2161 282905.800  -3961862.5102   3348960.3206   3698252.7120   1  18   0.0071   0.0074   0.0045  -0.0057   0.0047  -0.0044   0.80   14.0
2161 282906.000  -3961862.5105   3348960.3216   3698252.7132   1  18   0.0070   0.0073   0.0045  -0.0057   0.0047  -0.0043  -0.00   11.1
2161 282906.200  -3961862.5088   3348960.3220   3698252.7144   1  18   0.0070   0.0073   0.0045  -0.0057   0.0047  -0.0043   0.20   11.7
2161 282906.400  -3961862.5115   3348960.3225   3698252.7135   1  18   0.0072   0.0075   0.0047  -0.0059   0.0049  -0.0046   0.40   11.3
2161 282906.600  -3961862.5063   3348960.3187   3698252.7120   1  18   0.0073   0.0075   0.0047  -0.0059   0.0049  -0.0046   0.60   12.2
2161 282906.800  -3961862.5074   3348960.3218   3698252.7137   1  18   0.0073   0.0076   0.0047  -0.0059   0.0049  -0.0046   0.80   11.8
2161 282907.000  -3961862.5105   3348960.3184   3698252.7123   1  18   0.0072   0.0075   0.0046  -0.0059   0.0049  -0.0045  -0.00   10.6
2161 282907.200  -3961862.5090   3348960.3191   3698252.7119   1  18   0.0072   0.0075   0.0046  -0.0059   0.0049  -0.0045   0.20   11.3
2161 282907.400  -3961862.5107   3348960.3192   3698252.7125   1  18   0.0072   0.0075   0.0047  -0.0059   0.0049  -0.0046   0.40   13.4
2161 282907.600  -3961862.5092   3348960.3187   3698252.7125   1  18   0.0073   0.0075   0.0047  -0.0059   0.0049  -0.0046   0.60   10.2
2161 282907.800  -3961862.5094   3348960.3191   3698252.7121   1  18   0.0073   0.0076   0.0047  -0.0059   0.0049  -0.0046   0.80   12.4
2161 282908.000  -3961862.5097   3348960.3238   3698252.7136   1  18   0.0072   0.0075   0.0046  -0.0059   0.0049  -0.0045  -0.00    9.9
2161 282908.200  -3961862.5128   3348960.3234   3698252.7132   1  18   0.0072   0.0075   0.0046  -0.0059   0.0049  -0.0045   0.20   12.4
2161 282908.400  -3961862.5086   3348960.3225   3698252.7131   1  18   0.0072   0.0075   0.0047  -0.0059   0.0049  -0.0046   0.40    9.7
2161 282908.600  -3961862.5088   3348960.3220   3698252.7127   1  18   0.0073   0.0075   0.0047  -0.0059   0.0049  -0.0046   0.60   11.2
2161 282908.800  -3961862.5100   3348960.3240   3698252.7138   1  18   0.0073   0.0076   0.0047  -0.0059   0.0049  -0.0046   0.80   12.1
2161 282909.000  -3961862.5099   3348960.3223   3698252.7131   1  18   0.0072   0.0075   0.0046  -0.0059   0.0049  -0.0045  -0.00   11.2
2161 282909.200  -3961862.5107   3348960.3229   3698252.7135   1  18   0.0072   0.0075   0.0046  -0.0059   0.0049  -0.0045   0.20   12.7
2161 282909.400  -3961862.5101   3348960.3204   3698252.7126   1  18   0.0072   0.0075   0.0047  -0.0059   0.0049  -0.0046   0.40   13.4
2161 282909.600  -3961862.5115   3348960.3234   3698252.7137   1  18   0.0073   0.0075   0.0047  -0.0059   0.0049  -0.0046   0.60   11.3
2161 282909.800  -3961862.5081   3348960.3210   3698252.7129   1  18   0.0073   0.0076   0.0047  -0.0059   0.0049  -0.0046   0.80   12.1
2161 282910.000  -3961862.5083   3348960.3217   3698252.7133   1  18   0.0072   0.0075   0.0046  -0.0059   0.0049  -0.0045  -0.00   12.4
2161 282910.200  -3961862.5098   3348960.3215   3698252.7125   1  18   0.0072   0.0075   0.0046  -0.0059   0.0049  -0.0045   0.20   12.7
2161 282910.400  -3961862.5076   3348960.3209   3698252.7129   1  18   0.0072   0.0075   0.0047  -0.0059   0.0049  -0.0045   0.40   14.6
2161 282910.600  -3961862.5079   3348960.3225   3698252.7128   1  18   0.0073   0.0075   0.0047  -0.0059   0.0049  -0.0046   0.60   13.8
2161 282910.800  -3961862.5074   3348960.3212   3698252.7120   1  18   0.0073   0.0076   0.0047  -0.0059   0.0049  -0.0046   0.80   11.4
2161 282911.000  -3961862.5070   3348960.3185   3698252.7125   1  18   0.0072   0.0075   0.0046  -0.0059   0.0049  -0.0045  -0.00   10.2
2161 282911.200  -3961862.5084   3348960.3214   3698252.7136   1  18   0.0072   0.0075   0.0046  -0.0059   0.0049  -0.0045   0.20   10.8
2161 282911.400  -3961862.5094   3348960.3198   3698252.7122   1  18   0.0072   0.0075   0.0047  -0.0059   0.0049  -0.0045   0.40    9.1
2161 282911.600  -3961862.5079   3348960.3195   3698252.7120   1  18   0.0073   0.0075   0.0047  -0.0059   0.0049  -0.0046   0.60   10.4
2161 282911.800  -3961862.5073   3348960.3187   3698252.7122   1  18   0.0073   0.0076   0.0047  -0.0059   0.0049  -0.0046   0.80   10.4
2161 282912.000  -3961862.5104   3348960.3213   3698252.7134   1  18   0.0072   0.0075   0.0046  -0.0059   0.0049  -0.0045  -0.00    8.5
2161 282912.200  -3961862.5091   3348960.3205   3698252.7119   1  18   0.0072   0.0075   0.0046  -0.0059   0.0049  -0.0045   0.20    9.5
2161 282912.400  -3961862.5081   3348960.3204   3698252.7121   1  18   0.0072   0.0075   0.0047  -0.0059   0.0049  -0.0045   0.40    8.3
2161 282912.600  -3961862.5073   3348960.3194   3698252.7115   1  18   0.0073   0.0075   0.0047  -0.0059   0.0049  -0.0046   0.60   10.5
2161 282912.800  -3961862.5103   3348960.3205   3698252.7123   1  18   0.0073   0.0076   0.0047  -0.0059   0.0049  -0.0046   0.80   10.0
2161 282913.000  -3961862.5106   3348960.3221   3698252.7130   1  18   0.0072   0.0075   0.0046  -0.0058   0.0049  -0.0045  -0.00   12.7
2161 282913.200  -3961862.5126   3348960.3214   3698252.7140   1  18   0.0072   0.0075   0.0046  -0.0059   0.0049  -0.0045   0.20   13.2
2161 282913.400  -3961862.5115   3348960.3214   3698252.7122   1  18   0.0072   0.0075   0.0047  -0.0059   0.0049  -0.0045   0.40   12.4
2161 282913.600  -3961862.5094   3348960.3213   3698252.7118   1  18   0.0073   0.0075   0.0047  -0.0059   0.0049  -0.0046   0.60   14.1
2161 282913.800  -3961862.5102   3348960.3225   3698252.7143   1  18   0.0073   0.0076   0.0047  -0.0059   0.0049  -0.0046   0.80   11.0
2161 282914.000  -3961862.5098   3348960.3186   3698252.7122   1  18   0.0072   0.0075   0.0046  -0.0058   0.0049  -0.0045  -0.00   12.2
2161 282914.200  -3961862.5096   3348960.3198   3698252.7134   1  18   0.0072   0.0075   0.0046  -0.0059   0.0049  -0.0045   0.20   13.9
2161 282914.400  -3961862.5061   3348960.3184   3698252.7116   1  18   0.0072   0.0075   0.0047  -0.0059   0.0049  -0.0045   0.40   10.6
2161 282914.600  -3961862.5064   3348960.3183   3698252.7111   1  18   0.0073   0.0075   0.0047  -0.0059   0.0049  -0.0046   0.60    9.6
2161 282914.800  -3961862.5102   3348960.3199   3698252.7128   1  18   0.0073   0.0076   0.0047  -0.0059   0.0049  -0.0046   0.80   11.3
2161 282915.000  -3961862.5069   3348960.3181   3698252.7124   1  18   0.0072   0.0075   0.0046  -0.0058   0.0049  -0.0045  -0.00    9.3
2161 282915.200  -3961862.5087   3348960.3203   3698252.7134   1  18   0.0072   0.0075   0.0046  -0.0059   0.0049  -0.0045   0.20   13.0
2161 282915.400  -3961862.5078   3348960.3191   3698252.7127   1  18   0.0072   0.0075   0.0047  -0.0059   0.0049  -0.0045   0.40   11.1
2161 282915.600  -3961862.5069   3348960.3185   3698252.7123   1  18   0.0073   0.0075   0.0047  -0.0059   0.0049  -0.0046   0.60   11.5
2161 282915.800  -3961862.5113   3348960.3208   3698252.7136   1  18   0.0073   0.0076   0.0047  -0.0059   0.0049  -0.0046   0.80   12.3
2161 282916.000  -3961862.5107   3348960.3200   3698252.7127   1  18   0.0072   0.0075   0.0046  -0.0058   0.0049  -0.0045  -0.00   13.0
2161 282916.200  -3961862.5107   3348960.3203   3698252.7121   1  18   0.0072   0.0075   0.0046  -0.0059   0.0049  -0.0045   0.20   12.1
2161 282916.400  -3961862.5070   3348960.3194   3698252.7122   1  18   0.0072   0.0075   0.0047  -0.0059   0.0049  -0.0045   0.40   12.4
2161 282916.600  -3961862.5053   3348960.3173   3698252.7109   1  18   0.0073   0.0075   0.0047  -0.0059   0.0049  -0.0046   0.60   13.3
2161 282916.800  -3961862.5089   3348960.3198   3698252.7120   1  18   0.0073   0.0076   0.0047  -0.0059   0.0049  -0.0046   0.80   11.1
2161 282917.000  -3961862.5092   3348960.3177   3698252.7133   1  18   0.0072   0.0075   0.0046  -0.0058   0.0049  -0.0045  -0.00   13.3
2161 282917.200  -3961862.5049   3348960.3187   3698252.7119   1  18   0.0072   0.0075   0.0046  -0.0059   0.0049  -0.0045   0.20   10.7
2161 282917.400  -3961862.5080   3348960.3168   3698252.7128   1  18   0.0072   0.0075   0.0047  -0.0059   0.0049  -0.0045   0.40   15.8
2161 282917.600  -3961862.5068   3348960.3174   3698252.7115   1  18   0.0073   0.0075   0.0047  -0.0059   0.0049  -0.0046   0.60   12.9
2161 282917.800  -3961862.5079   3348960.3209   3698252.7135   1  18   0.0073   0.0076   0.0047  -0.0059   0.0049  -0.0046   0.80   12.2
2161 282918.000  -3961862.5097   3348960.3196   3698252.7123   1  18   0.0072   0.0075   0.0046  -0.0058   0.0049  -0.0045  -0.00   13.9
2161 282918.200  -3961862.5101   3348960.3165   3698252.7109   1  18   0.0072   0.0075   0.0046  -0.0059   0.0049  -0.0045   0.20   12.5
2161 282918.400  -3961862.5117   3348960.3188   3698252.7118   1  18   0.0072   0.0075   0.0047  -0.0059   0.0049  -0.0045   0.40   10.0
2161 282918.600  -3961862.5116   3348960.3192   3698252.7122   1  18   0.0073   0.0075   0.0047  -0.0059   0.0049  -0.0046   0.60   11.4
2161 282918.800  -3961862.5056   3348960.3193   3698252.7116   1  18   0.0073   0.0076   0.0047  -0.0059   0.0049  -0.0046   0.80    8.9
2161 282919.000  -3961862.5106   3348960.3205   3698252.7137   1  18   0.0072   0.0075   0.0046  -0.0058   0.0049  -0.0045  -0.00   12.2
2161 282919.200  -3961862.5099   3348960.3222   3698252.7131   1  18   0.0072   0.0075   0.0046  -0.0059   0.0049  -0.0045   0.20   11.4
2161 282919.400  -3961862.5101   3348960.3214   3698252.7117   1  18   0.0072   0.0075   0.0047  -0.0059   0.0049  -0.0045   0.40   11.0
2161 282919.600  -3961862.5071   3348960.3207   3698252.7123   1  18   0.0073   0.0075   0.0047  -0.0059   0.0049  -0.0046   0.60   11.6
2161 282919.800  -3961862.5110   3348960.3219   3698252.7127   1  18   0.0073   0.0076   0.0047  -0.0059   0.0049  -0.0046   0.80   11.9
2161 282920.000  -3961862.5087   3348960.3190   3698252.7124   1  18   0.0072   0.0075   0.0046  -0.0058   0.0049  -0.0045  -0.00   12.8
2161 282920.200  -3961862.5085   3348960.3172   3698252.7119   1  18   0.0072   0.0075   0.0046  -0.0058   0.0049  -0.0045   0.20   11.7
2161 282920.400  -3961862.5112   3348960.3193   3698252.7119   1  18   0.0072   0.0075   0.0047  -0.0059   0.0049  -0.0045   0.40   13.1
2161 282920.600  -3961862.5071   3348960.3192   3698252.7115   1  18   0.0073   0.0075   0.0047  -0.0059   0.0049  -0.0046   0.60   11.3
2161 282920.800  -3961862.5068   3348960.3184   3698252.7108   1  18   0.0073   0.0076   0.0047  -0.0059   0.0049  -0.0046   0.80   11.6
2161 282921.000  -3961862.5100   3348960.3205   3698252.7128   1  18   0.0072   0.0075   0.0046  -0.0058   0.0049  -0.0045  -0.00   11.6
2161 282921.200  -3961862.5112   3348960.3181   3698252.7126   1  18   0.0072   0.0075   0.0046  -0.0058   0.0049  -0.0045   0.20   10.9
2161 282921.400  -3961862.5116   3348960.3238   3698252.7144   1  18   0.0072   0.0075   0.0047  -0.0059   0.0049  -0.0045   0.40   12.5
2161 282921.600  -3961862.5118   3348960.3194   3698252.7126   1  18   0.0073   0.0075   0.0047  -0.0059   0.0049  -0.0046   0.60   13.2
2161 282921.800  -3961862.5126   3348960.3208   3698252.7123   1  18   0.0073   0.0076   0.0047  -0.0059   0.0049  -0.0046   0.80   12.2
2161 282922.000  -3961862.5095   3348960.3226   3698252.7147   1  18   0.0072   0.0075   0.0046  -0.0058   0.0049  -0.0045  -0.00    9.8
2161 282922.200  -3961862.5119   3348960.3215   3698252.7141   1  18   0.0072   0.0075   0.0046  -0.0058   0.0049  -0.0045   0.20   14.5
2161 282922.400  -3961862.5109   3348960.3224   3698252.7147   1  18   0.0072   0.0075   0.0047  -0.0059   0.0049  -0.0045   0.40   11.3
2161 282922.600  -3961862.5069   3348960.3224   3698252.7141   1  18   0.0072   0.0075   0.0047  -0.0059   0.0049  -0.0046   0.60    9.8
2161 282922.800  -3961862.5095   3348960.3222   3698252.7130   1  18   0.0073   0.0076   0.0047  -0.0059   0.0049  -0.0046   0.80   11.6
2161 282923.000  -3961862.5096   3348960.3194   3698252.7131   1  18   0.0072   0.0075   0.0046  -0.0058   0.0049  -0.0045  -0.00   13.3
2161 282923.200  -3961862.5091   3348960.3198   3698252.7126   1  18   0.0072   0.0075   0.0046  -0.0058   0.0049  -0.0045   0.20   12.3
2161 282923.400  -3961862.5088   3348960.3184   3698252.7115   1  18   0.0072   0.0075   0.0047  -0.0059   0.0049  -0.0045   0.40   11.4
2161 282923.600  -3961862.5094   3348960.3175   3698252.7114   1  18   0.0072   0.0075   0.0047  -0.0059   0.0049  -0.0046   0.60   12.3
2161 282923.800  -3961862.5121   3348960.3194   3698252.7129   1  18   0.0071   0.0074   0.0045  -0.0057   0.0047  -0.0043   0.80   12.3
2161 282924.000  -3961862.5111   3348960.3186   3698252.7120   1  18   0.0070   0.0073   0.0045  -0.0056   0.0046  -0.0043  -0.00   11.4
2161 282924.200  -3961862.5147   3348960.3217   3698252.7133   1  18   0.0070   0.0073   0.0045  -0.0056   0.0047  -0.0043   0.20   14.2
2161 282924.400  -3961862.5148   3348960.3231   3698252.7144   1  18   0.0070   0.0073   0.0045  -0.0057   0.0047  -0.0043   0.40   11.1
2161 282924.600  -3961862.5137   3348960.3201   3698252.7135   1  18   0.0071   0.0074   0.0045  -0.0057   0.0047  -0.0043   0.60   11.8
2161 282924.800  -3961862.5136   3348960.3220   3698252.7137   1  18   0.0071   0.0074   0.0045  -0.0057   0.0047  -0.0043   0.80   11.7
2161 282925.000  -3961862.5122   3348960.3200   3698252.7122   1  18   0.0070   0.0073   0.0045  -0.0056   0.0046  -0.0043  -0.00   12.3
2161 282925.200  -3961862.5119   3348960.3198   3698252.7127   1  18   0.0070   0.0073   0.0045  -0.0056   0.0047  -0.0043   0.20   12.4
2161 282925.400  -3961862.5124   3348960.3204   3698252.7113   1  18   0.0070   0.0073   0.0045  -0.0057   0.0047  -0.0043   0.40   12.4
2161 282925.600  -3961862.5127   3348960.3218   3698252.7132   1  18   0.0071   0.0074   0.0045  -0.0057   0.0047  -0.0043   0.60   11.8
2161 282925.800  -3961862.5109   3348960.3213   3698252.7115   1  18   0.0071   0.0074   0.0045  -0.0057   0.0047  -0.0043   0.80   15.0
2161 282926.000  -3961862.5103   3348960.3182   3698252.7107   1  18   0.0070   0.0073   0.0045  -0.0056   0.0046  -0.0043  -0.00   11.9
2161 282926.200  -3961862.5111   3348960.3201   3698252.7122   1  18   0.0070   0.0073   0.0045  -0.0056   0.0047  -0.0043   0.20   13.3
2161 282926.400  -3961862.5084   3348960.3196   3698252.7113   1  18   0.0070   0.0073   0.0045  -0.0057   0.0047  -0.0043   0.40   12.6
2161 282926.600  -3961862.5110   3348960.3211   3698252.7128   1  18   0.0071   0.0074   0.0045  -0.0057   0.0047  -0.0043   0.60   14.0
2161 282926.800  -3961862.5110   3348960.3193   3698252.7115   1  18   0.0071   0.0074   0.0045  -0.0057   0.0047  -0.0043   0.80   13.0
2161 282927.000  -3961862.5080   3348960.3171   3698252.7111   1  18   0.0070   0.0073   0.0045  -0.0056   0.0046  -0.0043  -0.00   12.0
2161 282927.200  -3961862.5030   3348960.3118   3698252.7087   1  18   0.0072   0.0075   0.0046  -0.0058   0.0049  -0.0045   0.20   11.8
2161 282927.400  -3961862.5079   3348960.3163   3698252.7099   1  18   0.0072   0.0075   0.0047  -0.0059   0.0049  -0.0045   0.40   14.2
2161 282927.600  -3961862.5084   3348960.3188   3698252.7111   1  18   0.0072   0.0075   0.0047  -0.0059   0.0049  -0.0046   0.60   11.1
2161 282927.800  -3961862.5080   3348960.3186   3698252.7113   1  18   0.0073   0.0076   0.0047  -0.0059   0.0049  -0.0046   0.80   12.8
2161 282928.000  -3961862.5083   3348960.3185   3698252.7117   1  18   0.0070   0.0073   0.0045  -0.0056   0.0046  -0.0043  -0.00   10.5
2161 282928.200  -3961862.5083   3348960.3191   3698252.7122   1  18   0.0070   0.0073   0.0045  -0.0056   0.0047  -0.0043   0.20   11.2
2161 282928.400  -3961862.5113   3348960.3197   3698252.7120   1  18   0.0070   0.0073   0.0045  -0.0057   0.0047  -0.0043   0.40   12.8
2161 282928.600  -3961862.5111   3348960.3203   3698252.7115   1  18   0.0071   0.0074   0.0045  -0.0057   0.0047  -0.0043   0.60   13.8
2161 282928.800  -3961862.5089   3348960.3197   3698252.7112   1  18   0.0071   0.0074   0.0045  -0.0057   0.0047  -0.0043   0.80   14.0
2161 282929.000  -3961862.5092   3348960.3155   3698252.7110   1  18   0.0070   0.0073   0.0045  -0.0056   0.0046  -0.0043  -0.00   11.6
2161 282929.200  -3961862.5069   3348960.3154   3698252.7103   1  18   0.0070   0.0073   0.0045  -0.0056   0.0047  -0.0043   0.20   11.2
2161 282929.400  -3961862.5063   3348960.3165   3698252.7101   1  18   0.0072   0.0075   0.0047  -0.0059   0.0049  -0.0045   0.40   10.9
2161 282929.600  -3961862.5087   3348960.3162   3698252.7108   1  18   0.0072   0.0075   0.0047  -0.0059   0.0049  -0.0046   0.60   10.8
2161 282929.800  -3961862.5051   3348960.3126   3698252.7092   1  18   0.0073   0.0076   0.0047  -0.0059   0.0049  -0.0046   0.80   10.6
2161 282930.000  -3961862.5113   3348960.3184   3698252.7115   1  18   0.0072   0.0075   0.0046  -0.0058   0.0049  -0.0045  -0.00   14.3
2161 282930.200  -3961862.5094   3348960.3185   3698252.7109   1  18   0.0072   0.0075   0.0046  -0.0058   0.0049  -0.0045   0.20   11.6
2161 282930.400  -3961862.5102   3348960.3193   3698252.7116   1  18   0.0072   0.0075   0.0047  -0.0059   0.0049  -0.0045   0.40   13.8
2161 282930.600  -3961862.5115   3348960.3213   3698252.7128   1  18   0.0072   0.0075   0.0047  -0.0059   0.0049  -0.0046   0.60   11.7
2161 282930.800  -3961862.5113   3348960.3236   3698252.7126   1  18   0.0073   0.0076   0.0047  -0.0059   0.0049  -0.0046   0.80   16.4
2161 282931.000  -3961862.5133   3348960.3234   3698252.7140   1  18   0.0072   0.0075   0.0046  -0.0058   0.0049  -0.0045  -0.00   10.9
2161 282931.200  -3961862.5129   3348960.3224   3698252.7133   1  18   0.0072   0.0075   0.0046  -0.0058   0.0049  -0.0045   0.20   10.5
2161 282931.400  -3961862.5142   3348960.3233   3698252.7141   1  18   0.0072   0.0075   0.0047  -0.0059   0.0049  -0.0045   0.40   11.7
2161 282931.600  -3961862.5121   3348960.3222   3698252.7134   1  18   0.0072   0.0075   0.0047  -0.0059   0.0049  -0.0046   0.60   10.5
2161 282931.800  -3961862.5149   3348960.3214   3698252.7142   1  18   0.0073   0.0076   0.0047  -0.0059   0.0049  -0.0046   0.80   12.3
2161 282932.000  -3961862.5116   3348960.3190   3698252.7126   1  18   0.0072   0.0075   0.0046  -0.0058   0.0048  -0.0045  -0.00   10.8
2161 282932.200  -3961862.5103   3348960.3202   3698252.7133   1  18   0.0072   0.0075   0.0046  -0.0058   0.0049  -0.0045   0.20   11.0
2161 282932.400  -3961862.5118   3348960.3218   3698252.7140   1  18   0.0072   0.0075   0.0047  -0.0059   0.0049  -0.0045   0.40   10.1
2161 282932.600  -3961862.5120   3348960.3223   3698252.7137   1  18   0.0072   0.0075   0.0047  -0.0059   0.0049  -0.0046   0.60   11.5
2161 282932.800  -3961862.5137   3348960.3211   3698252.7127   1  18   0.0073   0.0076   0.0047  -0.0059   0.0049  -0.0046   0.80   13.8
2161 282933.000  -3961862.5141   3348960.3220   3698252.7141   1  18   0.0072   0.0075   0.0046  -0.0058   0.0048  -0.0045  -0.00   13.2
2161 282933.200  -3961862.5148   3348960.3235   3698252.7153   1  18   0.0072   0.0075   0.0046  -0.0058   0.0049  -0.0045   0.20   12.7
2161 282933.400  -3961862.5132   3348960.3208   3698252.7132   1  18   0.0072   0.0075   0.0047  -0.0059   0.0049  -0.0045   0.40   14.0
2161 282933.600  -3961862.5131   3348960.3217   3698252.7139   1  18   0.0072   0.0075   0.0047  -0.0059   0.0049  -0.0046   0.60   13.2
2161 282933.800  -3961862.5127   3348960.3212   3698252.7137   1  18   0.0073   0.0076   0.0047  -0.0059   0.0049  -0.0046   0.80   11.2
2161 282934.000  -3961862.5130   3348960.3196   3698252.7138   1  18   0.0072   0.0075   0.0046  -0.0058   0.0048  -0.0045  -0.00   14.2
2161 282934.200  -3961862.5129   3348960.3195   3698252.7134   1  18   0.0072   0.0075   0.0046  -0.0058   0.0049  -0.0045   0.20   13.0
2161 282934.400  -3961862.5118   3348960.3192   3698252.7128   1  18   0.0072   0.0075   0.0047  -0.0059   0.0049  -0.0045   0.40   10.1
2161 282934.600  -3961862.5144   3348960.3183   3698252.7119   1  18   0.0072   0.0075   0.0047  -0.0059   0.0049  -0.0046   0.60   12.7
2161 282934.800  -3961862.5140   3348960.3200   3698252.7124   1  18   0.0073   0.0076   0.0047  -0.0059   0.0049  -0.0046   0.80   10.8
2161 282935.000  -3961862.5133   3348960.3187   3698252.7126   1  18   0.0072   0.0075   0.0046  -0.0058   0.0048  -0.0045  -0.00    9.8
2161 282935.200  -3961862.5144   3348960.3210   3698252.7122   1  18   0.0072   0.0075   0.0046  -0.0058   0.0049  -0.0045   0.20   10.8
2161 282935.400  -3961862.5142   3348960.3208   3698252.7125   1  18   0.0072   0.0075   0.0047  -0.0059   0.0049  -0.0045   0.40   10.3
2161 282935.600  -3961862.5101   3348960.3173   3698252.7106   1  18   0.0072   0.0075   0.0047  -0.0059   0.0049  -0.0046   0.60    9.6
2161 282935.800  -3961862.5106   3348960.3211   3698252.7115   1  18   0.0073   0.0076   0.0047  -0.0059   0.0049  -0.0046   0.80    9.2
2161 282936.000  -3961862.5126   3348960.3184   3698252.7132   1  18   0.0072   0.0075   0.0046  -0.0058   0.0048  -0.0045  -0.00   15.1
2161 282936.200  -3961862.5149   3348960.3196   3698252.7139   1  18   0.0072   0.0075   0.0046  -0.0058   0.0049  -0.0045   0.20   15.5
2161 282936.400  -3961862.5112   3348960.3177   3698252.7123   1  18   0.0072   0.0075   0.0047  -0.0059   0.0049  -0.0045   0.40   14.3
2161 282936.600  -3961862.5134   3348960.3191   3698252.7123   1  18   0.0072   0.0075   0.0047  -0.0059   0.0049  -0.0046   0.60   13.7
2161 282936.800  -3961862.5142   3348960.3190   3698252.7119   1  18   0.0073   0.0076   0.0047  -0.0059   0.0049  -0.0046   0.80   13.5
2161 282937.000  -3961862.5114   3348960.3194   3698252.7115   1  18   0.0072   0.0075   0.0046  -0.0058   0.0048  -0.0045  -0.00   12.0
2161 282937.200  -3961862.5094   3348960.3195   3698252.7116   1  18   0.0072   0.0075   0.0046  -0.0058   0.0049  -0.0045   0.20   10.9
2161 282937.400  -3961862.5088   3348960.3197   3698252.7115   1  18   0.0072   0.0075   0.0047  -0.0059   0.0049  -0.0045   0.40   10.1
2161 282937.600  -3961862.5110   3348960.3202   3698252.7117   1  18   0.0072   0.0075   0.0047  -0.0059   0.0049  -0.0046   0.60   10.8
2161 282937.800  -3961862.5101   3348960.3203   3698252.7117   1  18   0.0073   0.0076   0.0047  -0.0059   0.0049  -0.0046   0.80   12.0
2161 282938.000  -3961862.5087   3348960.3173   3698252.7101   1  18   0.0072   0.0075   0.0046  -0.0058   0.0048  -0.0045  -0.00   10.4
2161 282938.200  -3961862.5107   3348960.3200   3698252.7126   1  18   0.0072   0.0075   0.0046  -0.0058   0.0049  -0.0045   0.20   12.6
2161 282938.400  -3961862.5075   3348960.3170   3698252.7107   1  18   0.0072   0.0075   0.0047  -0.0059   0.0049  -0.0045   0.40   13.4
2161 282938.600  -3961862.5083   3348960.3176   3698252.7104   1  18   0.0072   0.0075   0.0047  -0.0059   0.0049  -0.0046   0.60   12.6
2161 282938.800  -3961862.5094   3348960.3180   3698252.7098   1  18   0.0073   0.0076   0.0047  -0.0059   0.0049  -0.0046   0.80   11.7
2161 282939.000  -3961862.5129   3348960.3206   3698252.7120   1  18   0.0072   0.0075   0.0046  -0.0058   0.0048  -0.0045  -0.00   10.9
2161 282939.200  -3961862.5111   3348960.3180   3698252.7107   1  18   0.0072   0.0075   0.0046  -0.0058   0.0049  -0.0045   0.20   10.6
2161 282939.400  -3961862.5126   3348960.3187   3698252.7108   1  18   0.0070   0.0074   0.0046  -0.0057   0.0048  -0.0044   0.40   12.9
2161 282939.600  -3961862.5122   3348960.3191   3698252.7105   1  18   0.0070   0.0074   0.0046  -0.0057   0.0048  -0.0045   0.60   12.7
2161 282939.800  -3961862.5096   3348960.3171   3698252.7098   1  18   0.0071   0.0075   0.0047  -0.0058   0.0049  -0.0045   0.80   10.6
2161 282940.000  -3961862.5127   3348960.3202   3698252.7113   1  18   0.0070   0.0074   0.0046  -0.0057   0.0048  -0.0044  -0.00   12.7
2161 282940.200  -3961862.5143   3348960.3197   3698252.7110   1  18   0.0070   0.0074   0.0046  -0.0057   0.0048  -0.0044   0.20   13.6
2161 282940.400  -3961862.5175   3348960.3236   3698252.7136   1  18   0.0070   0.0074   0.0046  -0.0057   0.0048  -0.0044   0.40   13.0
2161 282940.600  -3961862.5142   3348960.3215   3698252.7119   1  18   0.0070   0.0074   0.0046  -0.0057   0.0048  -0.0045   0.60   10.8
2161 282940.800  -3961862.5124   3348960.3191   3698252.7114   1  18   0.0071   0.0075   0.0047  -0.0058   0.0049  -0.0045   0.80   12.6
2161 282941.000  -3961862.5153   3348960.3182   3698252.7124   1  18   0.0070   0.0074   0.0046  -0.0057   0.0048  -0.0044  -0.00   13.9
2161 282941.200  -3961862.5165   3348960.3182   3698252.7120   1  18   0.0070   0.0074   0.0046  -0.0057   0.0048  -0.0044   0.20   15.4
2161 282941.400  -3961862.5170   3348960.3221   3698252.7144   1  18   0.0070   0.0074   0.0046  -0.0057   0.0048  -0.0044   0.40   12.3
2161 282941.600  -3961862.5159   3348960.3189   3698252.7123   1  18   0.0070   0.0074   0.0046  -0.0057   0.0048  -0.0045   0.60   13.5
2161 282941.800  -3961862.5139   3348960.3173   3698252.7116   1  18   0.0071   0.0075   0.0047  -0.0058   0.0049  -0.0045   0.80   12.2
2161 282942.000  -3961862.5129   3348960.3192   3698252.7138   1  18   0.0070   0.0074   0.0046  -0.0057   0.0048  -0.0044  -0.00   15.3
2161 282942.200  -3961862.5113   3348960.3158   3698252.7109   1  18   0.0070   0.0074   0.0046  -0.0057   0.0048  -0.0044   0.20   11.6
2161 282942.400  -3961862.5139   3348960.3170   3698252.7114   1  18   0.0070   0.0074   0.0046  -0.0057   0.0048  -0.0044   0.40   13.0
2161 282942.600  -3961862.5115   3348960.3165   3698252.7109   1  18   0.0070   0.0074   0.0046  -0.0057   0.0048  -0.0045   0.60   12.5
2161 282942.800  -3961862.5110   3348960.3160   3698252.7115   1  18   0.0071   0.0075   0.0047  -0.0058   0.0049  -0.0045   0.80   11.2
2161 282943.000  -3961862.5157   3348960.3203   3698252.7127   1  18   0.0070   0.0074   0.0046  -0.0057   0.0048  -0.0044  -0.00   13.0
2161 282943.200  -3961862.5138   3348960.3214   3698252.7122   1  18   0.0070   0.0074   0.0046  -0.0057   0.0048  -0.0044   0.20   11.8
2161 282943.400  -3961862.5135   3348960.3184   3698252.7107   1  18   0.0070   0.0074   0.0046  -0.0057   0.0048  -0.0044   0.40   11.1
2161 282943.600  -3961862.5130   3348960.3193   3698252.7117   1  18   0.0070   0.0074   0.0046  -0.0057   0.0048  -0.0045   0.60   11.0
2161 282943.800  -3961862.5137   3348960.3212   3698252.7128   1  18   0.0071   0.0075   0.0047  -0.0058   0.0049  -0.0045   0.80   12.3
2161 282944.000  -3961862.5147   3348960.3208   3698252.7124   1  18   0.0070   0.0074   0.0046  -0.0057   0.0048  -0.0044  -0.00   10.7
2161 282944.200  -3961862.5160   3348960.3232   3698252.7139   1  18   0.0070   0.0074   0.0046  -0.0057   0.0048  -0.0044   0.20   10.5
2161 282944.400  -3961862.5140   3348960.3205   3698252.7127   1  18   0.0070   0.0074   0.0046  -0.0057   0.0048  -0.0044   0.40   10.4
2161 282944.600  -3961862.5157   3348960.3224   3698252.7130   1  18   0.0070   0.0074   0.0046  -0.0057   0.0048  -0.0045   0.60    9.3
2161 282944.800  -3961862.5148   3348960.3215   3698252.7124   1  18   0.0071   0.0075   0.0047  -0.0058   0.0049  -0.0045   0.80   10.4
2161 282945.000  -3961862.5153   3348960.3206   3698252.7137   1  18   0.0070   0.0074   0.0046  -0.0057   0.0048  -0.0044  -0.00   13.0
